$GPRMC,,V,,,,,,,081003,15.1,E,N*07
$GPRMB,V,,,,,,,,,,,,A,N*13
$GPGGA,,,,,,0,00,,,M,,M,,*66
$GPGSA,A,1,,,,,,,,,,,,,,,*1E
$GPGSV,3,1,11,04,17,158,00,07,86,090,00,08,33,131,00,09,22,314,00*71
$GPGSV,3,2,11,11,13,047,00,26,39,260,00,27,05,135,00,28,51,054,00*7B
$GPGSV,3,3,11,29,36,236,00,35,08,103,00,47,15,251,00*4D
$GPGLL,,,,,,V,N*64
$GPBOD,,T,,M,,*47
$GPBWC,,,,,,,T,,M,,N,,N*74
$GPVTG,,T,,M,,N,,K*4E
$GPXTE,V,V,,,N,N*5E
$GPRMC,,V,,,,,,,081003,15.1,E,N*07
$GPRMB,V,,,,,,,,,,,,A,N*13
$GPGGA,,,,,,0,00,,,M,,M,,*66
$GPGSA,A,1,,,,,,,,,,,,,,,*1E
$GPGSV,3,1,11,04,17,158,00,07,86,090,00,08,33,131,00,09,22,314,00*71
$GPGSV,3,2,11,11,13,047,00,26,39,260,00,27,05,135,00,28,51,054,00*7B
$GPGSV,3,3,11,29,36,236,00,35,08,103,00,47,15,251,00*4D
$GPGLL,,,,,,V,N*64
$GPBOD,,T,,M,,*47
$GPBWC,,,,,,,T,,M,,N,,N*74
$GPVTG,,T,,M,,N,,K*4E
$GPXTE,V,V,,,N,N*5E
$GPRMC,,V,,,,,,,081003,15.1,E,N*07
$GPRMB,V,,,,,,,,,,,,A,N*13
$GPGGA,,,,,,0,00,,,M,,M,,*66
$GPGSA,A,1,,,,,,,,,,,,,,,*1E
$GPGSV,3,1,11,04,17,158,00,07,86,090,00,08,33,131,00,09,22,314,00*71
$GPGSV,3,2,11,11,13,047,00,26,39,260,00,27,05,135,00,28,51,054,00*7B
$GPGSV,3,3,11,29,36,236,00,35,08,103,00,47,15,251,00*4D
$GPGLL,,,,,,V,N*64
$GPBOD,,T,,M,,*47
$GPBWC,,,,,,,T,,M,,N,,N*74
$GPVTG,,T,,M,,N,,K*4E
$GPXTE,V,V,,,N,N*5E
$GPRMC,,V,,,,,,,081003,15.1,E,N*07
$GPRMB,V,,,,,,,,,,,,A,N*13
$GPGGA,,,,,,0,00,,,M,,M,,*66
$GPGSA,A,1,,,,,,,,,,,,,,,*1E
$GPGSV,3,1,11,04,17,158,00,07,86,090,00,08,33,131,00,09,22,314,00*71
$GPGSV,3,2,11,11,13,047,00,26,39,260,00,27,05,135,00,28,51,054,41*7E
$GPGSV,3,3,11,29,36,236,00,35,08,103,00,47,15,251,00*4D
$GPGLL,,,,,,V,N*64
$GPBOD,,T,,M,,*47
$GPBWC,,,,,,,T,,M,,N,,N*74
$GPVTG,,T,,M,,N,,K*4E
$GPXTE,V,V,,,N,N*5E
$GPRMC,,V,,,,,,,081003,15.1,E,N*07
$GPRMB,V,,,,,,,,,,,,A,N*13
$GPGGA,,,,,,8,00,,,M,,M,,*6E
$GPGSA,A,1,,,,,,,,,,,,,,,*1E
$GPGSV,3,1,09,04,17,158,40,07,86,089,51,08,33,131,43,09,22,314,40*73
$GPGSV,3,2,09,11,13,046,38,26,39,260,46,27,05,135,34,28,51,055,48*70
$GPGSV,3,3,09,29,36,236,45*48
$GPGLL,,,,,,V,N*64
$GPBOD,,T,,M,,*47
$GPBWC,,,,,,,T,,M,,N,,N*74
$GPVTG,,T,,M,,N,,K*4E
$GPXTE,V,V,,,N,N*5E
$GPRMC,010228,V,3734.5030,N,12226.0619,W,0.0,0.0,081003,15.1,E,S*34
$GPRMB,V,,,,,,,,,,,,A,S*0E
$GPGGA,010228,3734.5030,N,12226.0619,W,8,09,2.0,35.5,M,-28.4,M,,*45
$GPGSA,A,3,04,07,08,09,11,26,27,28,29,,,,3.6,2.0,3.0*34
$GPGSV,3,1,09,04,17,158,40,07,86,089,52,08,33,131,43,09,22,314,41*71
$GPGSV,3,2,09,11,13,046,39,26,39,260,46,27,05,135,34,28,51,055,48*71
$GPGSV,3,3,09,29,36,236,45*48
$GPGLL,3734.5030,N,12226.0619,W,010228,V,S*57
$GPBOD,,T,,M,,*47
$GPBWC,010228,,,,,,T,,M,,N,,S*60
$GPVTG,0.0,T,344.9,M,0.0,N,0.0,K*44
$GPXTE,V,V,,,N,S*43
$GPRMC,010230,V,3734.5030,N,12226.0619,W,0.0,0.0,081003,15.1,E,S*3D
$GPRMB,V,,,,,,,,,,,,A,S*0E
$GPGGA,010230,3734.5030,N,12226.0619,W,8,09,2.0,35.5,M,-28.4,M,,*4C
$GPGSA,A,3,04,07,08,09,11,26,27,28,29,,,,3.6,2.0,3.0*34
$GPGSV,3,1,09,04,17,158,40,07,86,089,52,08,33,131,44,09,22,314,42*75
$GPGSV,3,2,09,11,13,046,39,26,39,260,46,27,05,135,34,28,51,055,48*71
$GPGSV,3,3,09,29,36,236,45*48
$GPGLL,3734.5030,N,12226.0619,W,010230,V,S*5E
$GPBOD,,T,,M,,*47
$GPBWC,010230,,,,,,T,,M,,N,,S*69
$GPVTG,0.0,T,344.9,M,0.0,N,0.0,K*44
$GPXTE,V,V,,,N,S*43
$GPRMC,010232,V,3734.5030,N,12226.0619,W,0.0,0.0,081003,15.1,E,S*3F
$GPRMB,V,,,,,,,,,,,,A,S*0E
$GPGGA,010232,3734.5030,N,12226.0619,W,8,09,2.0,35.5,M,-28.4,M,,*4E
$GPGSA,A,3,04,07,08,09,11,26,27,28,29,,,,3.6,2.0,3.0*34
$GPGSV,3,1,09,04,17,158,40,07,86,089,52,08,33,131,44,09,22,314,41*76
$GPGSV,3,2,09,11,13,046,39,26,39,260,46,27,05,135,34,28,51,055,48*71
$GPGSV,3,3,09,29,36,236,46*4B
$GPGLL,3734.5030,N,12226.0619,W,010232,V,S*5C
$GPBOD,,T,,M,,*47
$GPBWC,010232,,,,,,T,,M,,N,,S*6B
$GPVTG,0.0,T,344.9,M,0.0,N,0.0,K*44
$GPXTE,V,V,,,N,S*43
$GPRMC,010234,V,3734.5030,N,12226.0619,W,0.0,0.0,081003,15.1,E,S*39
$GPRMB,V,,,,,,,,,,,,A,S*0E
$GPGGA,010234,3734.5030,N,12226.0619,W,8,09,2.0,35.5,M,-28.4,M,,*48
$GPGSA,A,3,04,07,08,09,11,26,27,28,29,,,,3.6,2.0,3.0*34
$GPGSV,3,1,09,04,17,158,40,07,86,089,52,08,33,131,44,09,22,314,42*75
$GPGSV,3,2,09,11,13,046,39,26,39,260,45,27,05,135,34,28,51,055,48*72
$GPGSV,3,3,09,29,36,236,45*48
$GPGLL,3734.5030,N,12226.0619,W,010234,V,S*5A
$GPBOD,,T,,M,,*47
$GPBWC,010234,,,,,,T,,M,,N,,S*6D
$GPVTG,0.0,T,344.9,M,0.0,N,0.0,K*44
$GPXTE,V,V,,,N,S*43
$GPRMC,010236,V,3734.5030,N,12226.0619,W,0.0,0.0,081003,15.1,E,S*3B
$GPRMB,V,,,,,,,,,,,,A,S*0E
$GPGGA,010236,3734.5030,N,12226.0619,W,8,09,2.0,35.5,M,-28.4,M,,*4A
$GPGSA,A,3,04,07,08,09,11,26,27,28,29,,,,3.6,2.0,3.0*34
$GPGSV,3,1,09,04,17,158,41,07,86,089,52,08,33,131,44,09,22,314,42*74
$GPGSV,3,2,09,11,13,046,39,26,39,260,45,27,05,135,34,28,51,055,48*72
$GPGSV,3,3,09,29,36,236,45*48
$GPGLL,3734.5030,N,12226.0619,W,010236,V,S*58
$GPBOD,,T,,M,,*47
$GPBWC,010236,,,,,,T,,M,,N,,S*6F
$GPVTG,0.0,T,344.9,M,0.0,N,0.0,K*44
$GPXTE,V,V,,,N,S*43
$GPRMC,010238,V,3734.5030,N,12226.0619,W,0.0,0.0,081003,15.1,E,S*35
$GPRMB,V,,,,,,,,,,,,A,S*0E
$GPGGA,010238,3734.5030,N,12226.0619,W,8,09,2.0,35.5,M,-28.4,M,,*44
$GPGSA,A,3,04,07,08,09,11,26,27,28,29,,,,3.6,2.0,3.0*34
$GPGSV,3,1,09,04,17,158,40,07,86,089,52,08,33,131,45,09,22,314,42*74
$GPGSV,3,2,09,11,13,046,39,26,39,260,46,27,05,135,34,28,51,055,48*71
$GPGSV,3,3,09,29,36,236,45*48
$GPGLL,3734.5030,N,12226.0619,W,010238,V,S*56
$GPBOD,,T,,M,,*47
$GPBWC,010238,,,,,,T,,M,,N,,S*61
$GPVTG,0.0,T,344.9,M,0.0,N,0.0,K*44
$GPXTE,V,V,,,N,S*43
$GPRMC,010240,V,3734.5030,N,12226.0619,W,0.0,0.0,081003,15.1,E,S*3A
$GPRMB,V,,,,,,,,,,,,A,S*0E
$GPGGA,010240,3734.5030,N,12226.0619,W,8,09,2.0,35.5,M,-28.4,M,,*4B
$GPGSA,A,3,04,07,08,09,11,26,27,28,29,,,,3.6,2.0,3.0*34
$GPGSV,3,1,09,04,17,158,40,07,86,089,52,08,33,131,45,09,22,314,42*74
$GPGSV,3,2,09,11,13,046,39,26,39,260,46,27,05,135,34,28,51,055,48*71
$GPGSV,3,3,09,29,36,236,45*48
$GPGLL,3734.5030,N,12226.0619,W,010240,V,S*59
$GPBOD,,T,,M,,*47
$GPBWC,010240,,,,,,T,,M,,N,,S*6E
$GPVTG,0.0,T,344.9,M,0.0,N,0.0,K*44
$GPXTE,V,V,,,N,S*43
$GPRMC,010242,V,3734.5030,N,12226.0619,W,0.0,0.0,081003,15.1,E,S*38
$GPRMB,V,,,,,,,,,,,,A,S*0E
$GPGGA,010242,3734.5030,N,12226.0619,W,8,09,2.0,35.5,M,-28.4,M,,*49
$GPGSA,A,3,04,07,08,09,11,26,27,28,29,,,,3.6,2.0,3.0*34
$GPGSV,3,1,09,04,17,158,40,07,86,089,51,08,33,131,44,09,22,314,42*76
$GPGSV,3,2,09,11,13,046,39,26,39,260,46,27,05,135,34,28,51,055,48*71
$GPGSV,3,3,09,29,36,236,45*48
$GPGLL,3734.5030,N,12226.0619,W,010242,V,S*5B
$GPBOD,,T,,M,,*47
$GPBWC,010242,,,,,,T,,M,,N,,S*6C
$GPVTG,0.0,T,344.9,M,0.0,N,0.0,K*44
$GPXTE,V,V,,,N,S*43
$GPRMC,010244,V,3734.5030,N,12226.0619,W,0.0,0.0,081003,15.1,E,S*3E
$GPRMB,V,,,,,,,,,,,,A,S*0E
$GPGGA,010244,3734.5030,N,12226.0619,W,8,09,2.0,35.5,M,-28.4,M,,*4F
$GPGSA,A,3,04,07,08,09,11,26,27,28,29,,,,3.6,2.0,3.0*34
$GPGSV,3,1,09,04,17,158,40,07,86,089,51,08,33,131,44,09,22,314,42*76
$GPGSV,3,2,09,11,13,046,39,26,39,260,46,27,05,135,34,28,51,055,48*71
$GPGSV,3,3,09,29,36,236,45*48
$GPGLL,3734.5030,N,12226.0619,W,010244,V,S*5D
$GPBOD,,T,,M,,*47
$GPBWC,010244,,,,,,T,,M,,N,,S*6A
$GPVTG,0.0,T,344.9,M,0.0,N,0.0,K*44
$GPXTE,V,V,,,N,S*43
$GPRMC,010246,V,3734.5030,N,12226.0619,W,0.0,0.0,081003,15.1,E,S*3C
$GPRMB,V,,,,,,,,,,,,A,S*0E
$GPGGA,010246,3734.5030,N,12226.0619,W,8,09,2.0,35.5,M,-28.4,M,,*4D
$GPGSA,A,3,04,07,08,09,11,26,27,28,29,,,,3.6,2.0,3.0*34
$GPGSV,3,1,09,04,17,158,40,07,86,089,51,08,33,131,44,09,22,314,42*76
$GPGSV,3,2,09,11,13,046,39,26,39,260,46,27,05,135,33,28,51,055,48*76
$GPGSV,3,3,09,29,36,236,45*48
$GPGLL,3734.5030,N,12226.0619,W,010246,V,S*5F
$GPBOD,,T,,M,,*47
$GPBWC,010246,,,,,,T,,M,,N,,S*68
$GPVTG,0.0,T,344.9,M,0.0,N,0.0,K*44
$GPXTE,V,V,,,N,S*43
$GPRMC,010248,V,3734.5030,N,12226.0619,W,0.0,0.0,081003,15.1,E,S*32
$GPRMB,V,,,,,,,,,,,,A,S*0E
$GPGGA,010248,3734.5030,N,12226.0619,W,8,09,2.0,35.5,M,-28.4,M,,*43
$GPGSA,A,3,04,07,08,09,11,26,27,28,29,,,,3.6,2.0,3.0*34
$GPGSV,3,1,09,04,17,158,40,07,86,089,52,08,33,131,45,09,22,314,42*74
$GPGSV,3,2,09,11,13,046,39,26,39,260,46,27,05,135,34,28,51,055,48*71
$GPGSV,3,3,09,29,36,236,45*48
$GPGLL,3734.5030,N,12226.0619,W,010248,V,S*51
$GPBOD,,T,,M,,*47
$GPBWC,010248,,,,,,T,,M,,N,,S*66
$GPVTG,0.0,T,344.9,M,0.0,N,0.0,K*44
$GPXTE,V,V,,,N,S*43
$GPRMC,010250,V,3734.5030,N,12226.0619,W,0.0,0.0,081003,15.1,E,S*3B
$GPRMB,V,,,,,,,,,,,,A,S*0E
$GPGGA,010250,3734.5030,N,12226.0619,W,8,09,2.0,35.5,M,-28.4,M,,*4A
$GPGSA,A,3,04,07,08,09,11,26,27,28,29,,,,3.6,2.0,3.0*34
$GPGSV,3,1,09,04,17,158,40,07,86,089,51,08,33,131,45,09,22,314,42*77
$GPGSV,3,2,09,11,13,046,38,26,39,260,46,27,05,135,34,28,51,055,48*70
$GPGSV,3,3,09,29,36,236,45*48
$GPGLL,3734.5030,N,12226.0619,W,010250,V,S*58
$GPBOD,,T,,M,,*47
$GPBWC,010250,,,,,,T,,M,,N,,S*6F
$GPVTG,0.0,T,344.9,M,0.0,N,0.0,K*44
$GPXTE,V,V,,,N,S*43
$GPRMC,010252,V,3734.5030,N,12226.0619,W,0.0,0.0,081003,15.1,E,S*39
$GPRMB,V,,,,,,,,,,,,A,S*0E
$GPGGA,010252,3734.5030,N,12226.0619,W,8,09,2.0,35.5,M,-28.4,M,,*48
$GPGSA,A,3,04,07,08,09,11,26,27,28,29,,,,3.6,2.0,3.0*34
$GPGSV,3,1,09,04,17,158,40,07,86,087,51,08,33,131,44,09,22,314,42*78
$GPGSV,3,2,09,11,13,046,39,26,39,260,45,27,05,135,35,28,51,055,48*73
$GPGSV,3,3,09,29,36,236,45*48
$GPGLL,3734.5030,N,12226.0619,W,010252,V,S*5A
$GPBOD,,T,,M,,*47
$GPBWC,010252,,,,,,T,,M,,N,,S*6D
$GPVTG,0.0,T,344.9,M,0.0,N,0.0,K*44
$GPXTE,V,V,,,N,S*43
$GPRMC,010254,V,3734.5030,N,12226.0619,W,0.0,0.0,081003,15.1,E,S*3F
$GPRMB,V,,,,,,,,,,,,A,S*0E
$GPGGA,010254,3734.5030,N,12226.0619,W,8,09,2.0,35.5,M,-28.4,M,,*4E
$GPGSA,A,3,04,07,08,09,11,26,27,28,29,,,,3.6,2.0,3.0*34
$GPGSV,3,1,09,04,17,158,40,07,86,087,51,08,33,131,44,09,22,314,42*78
$GPGSV,3,2,09,11,13,046,39,26,39,260,46,27,05,135,35,28,51,055,48*70
$GPGSV,3,3,09,29,36,236,45*48
$GPGLL,3734.5030,N,12226.0619,W,010254,V,S*5C
$GPBOD,,T,,M,,*47
$GPBWC,010254,,,,,,T,,M,,N,,S*6B
$GPVTG,0.0,T,344.9,M,0.0,N,0.0,K*44
$GPXTE,V,V,,,N,S*43
$GPRMC,010256,V,3734.5030,N,12226.0619,W,0.0,0.0,081003,15.1,E,S*3D
$GPRMB,V,,,,,,,,,,,,A,S*0E
$GPGGA,010256,3734.5030,N,12226.0619,W,8,09,2.0,35.5,M,-28.4,M,,*4C
$GPGSA,A,3,04,07,08,09,11,26,27,28,29,,,,3.6,2.0,3.0*34
$GPGSV,3,1,09,04,17,158,41,07,86,087,51,08,32,131,44,09,22,314,42*78
$GPGSV,3,2,09,11,13,046,39,26,39,260,46,27,05,135,34,28,51,055,48*71
$GPGSV,3,3,09,29,36,236,45*48
$GPGLL,3734.5030,N,12226.0619,W,010256,V,S*5E
$GPBOD,,T,,M,,*47
$GPBWC,010256,,,,,,T,,M,,N,,S*69
$GPVTG,0.0,T,344.9,M,0.0,N,0.0,K*44
$GPXTE,V,V,,,N,S*43
$GPRMC,010258,V,3734.5030,N,12226.0619,W,0.0,0.0,081003,15.1,E,S*33
$GPRMB,V,,,,,,,,,,,,A,S*0E
$GPGGA,010258,3734.5030,N,12226.0619,W,8,09,2.0,35.5,M,-28.4,M,,*42
$GPGSA,A,3,04,07,08,09,11,26,27,28,29,,,,3.6,2.0,3.0*34
$GPGSV,3,1,09,04,17,158,40,07,86,087,51,08,32,131,44,09,22,314,41*7A
$GPGSV,3,2,09,11,13,046,39,26,39,260,45,27,05,135,35,28,51,055,48*73
$GPGSV,3,3,09,29,36,236,45*48
$GPGLL,3734.5030,N,12226.0619,W,010258,V,S*50
$GPBOD,,T,,M,,*47
$GPBWC,010258,,,,,,T,,M,,N,,S*67
$GPVTG,0.0,T,344.9,M,0.0,N,0.0,K*44
$GPXTE,V,V,,,N,S*43
$GPRMC,010300,V,3734.5030,N,12226.0619,W,0.0,0.0,081003,15.1,E,S*3F
$GPRMB,V,,,,,,,,,,,,A,S*0E
$GPGGA,010300,3734.5030,N,12226.0619,W,8,09,2.0,35.5,M,-28.4,M,,*4E
$GPGSA,A,3,04,07,08,09,11,26,27,28,29,,,,3.6,2.0,3.0*34
$GPGSV,3,1,09,04,17,158,40,07,86,087,51,08,32,131,44,09,22,314,42*79
$GPGSV,3,2,09,11,13,046,39,26,39,260,45,27,05,135,35,28,51,055,47*7C
$GPGSV,3,3,09,29,36,236,45*48
$GPGLL,3734.5030,N,12226.0619,W,010300,V,S*5C
$GPBOD,,T,,M,,*47
$GPBWC,010300,,,,,,T,,M,,N,,S*6B
$GPVTG,0.0,T,344.9,M,0.0,N,0.0,K*44
$GPXTE,V,V,,,N,S*43
$GPRMC,010302,V,3734.5030,N,12226.0619,W,0.0,0.0,081003,15.1,E,S*3D
$GPRMB,V,,,,,,,,,,,,A,S*0E
$GPGGA,010302,3734.5030,N,12226.0619,W,8,09,2.0,35.5,M,-28.4,M,,*4C
$GPGSA,A,3,04,07,08,09,11,26,27,28,29,,,,3.6,2.0,3.0*34
$GPGSV,3,1,09,04,17,158,40,07,86,087,52,08,32,131,44,09,22,314,42*7A
$GPGSV,3,2,09,11,13,046,39,26,39,260,45,27,05,135,35,28,51,055,47*7C
$GPGSV,3,3,09,29,36,236,45*48
$GPGLL,3734.5030,N,12226.0619,W,010302,V,S*5E
$GPBOD,,T,,M,,*47
$GPBWC,010302,,,,,,T,,M,,N,,S*69
$GPVTG,0.0,T,344.9,M,0.0,N,0.0,K*44
$GPXTE,V,V,,,N,S*43
$GPRMC,010304,V,3734.5030,N,12226.0619,W,0.0,0.0,081003,15.1,E,S*3B
$GPRMB,V,,,,,,,,,,,,A,S*0E
$GPGGA,010304,3734.5030,N,12226.0619,W,8,09,2.0,35.5,M,-28.4,M,,*4A
$GPGSA,A,3,04,07,08,09,11,26,27,28,29,,,,3.6,2.0,3.0*34
$GPGSV,3,1,09,04,17,158,40,07,86,087,52,08,32,131,44,09,22,314,42*7A
$GPGSV,3,2,09,11,13,046,39,26,39,260,45,27,05,135,35,28,51,055,48*73
$GPGSV,3,3,09,29,36,236,45*48
$GPGLL,3734.5030,N,12226.0619,W,010304,V,S*58
$GPBOD,,T,,M,,*47
$GPBWC,010304,,,,,,T,,M,,N,,S*6F
$GPVTG,0.0,T,344.9,M,0.0,N,0.0,K*44
$GPXTE,V,V,,,N,S*43
$GPRMC,010306,V,3734.5030,N,12226.0619,W,0.0,0.0,081003,15.1,E,S*39
$GPRMB,V,,,,,,,,,,,,A,S*0E
$GPGGA,010306,3734.5030,N,12226.0619,W,8,09,2.0,35.5,M,-28.4,M,,*48
$GPGSA,A,3,04,07,08,09,11,26,27,28,29,,,,3.6,2.0,3.0*34
$GPGSV,3,1,09,04,17,158,40,07,86,087,52,08,32,131,44,09,22,314,42*7A
$GPGSV,3,2,09,11,13,046,38,26,39,260,46,27,05,135,35,28,51,055,47*7E
$GPGSV,3,3,09,29,36,236,45*48
$GPGLL,3734.5030,N,12226.0619,W,010306,V,S*5A
$GPBOD,,T,,M,,*47
$GPBWC,010306,,,,,,T,,M,,N,,S*6D
$GPVTG,0.0,T,344.9,M,0.0,N,0.0,K*44
$GPXTE,V,V,,,N,S*43
$GPRMC,010308,V,3734.5030,N,12226.0619,W,0.0,0.0,081003,15.1,E,S*37
$GPRMB,V,,,,,,,,,,,,A,S*0E
$GPGGA,010308,3734.5030,N,12226.0619,W,8,09,2.0,35.5,M,-28.4,M,,*46
$GPGSA,A,3,04,07,08,09,11,26,27,28,29,,,,3.6,2.0,3.0*34
$GPGSV,3,1,09,04,17,158,40,07,86,087,51,08,32,131,44,09,22,314,42*79
$GPGSV,3,2,09,11,13,046,38,26,39,260,46,27,05,135,35,28,51,055,47*7E
$GPGSV,3,3,09,29,36,236,45*48
$GPGLL,3734.5030,N,12226.0619,W,010308,V,S*54
$GPBOD,,T,,M,,*47
$GPBWC,010308,,,,,,T,,M,,N,,S*63
$GPVTG,0.0,T,344.9,M,0.0,N,0.0,K*44
$GPXTE,V,V,,,N,S*43
$GPRMC,010310,V,3734.5030,N,12226.0619,W,0.0,0.0,081003,15.1,E,S*3E
$GPRMB,V,,,,,,,,,,,,A,S*0E
$GPGGA,010310,3734.5030,N,12226.0619,W,8,09,2.0,35.5,M,-28.4,M,,*4F
$GPGSA,A,3,04,07,08,09,11,26,27,28,29,,,,3.6,2.0,3.0*34
$GPGSV,3,1,09,04,17,158,40,07,86,087,51,08,32,131,44,09,22,314,42*79
$GPGSV,3,2,09,11,13,046,38,26,39,260,46,27,05,135,34,28,51,055,48*70
$GPGSV,3,3,09,29,36,236,45*48
$GPGLL,3734.5030,N,12226.0619,W,010310,V,S*5D
$GPBOD,,T,,M,,*47
$GPBWC,010310,,,,,,T,,M,,N,,S*6A
$GPVTG,0.0,T,344.9,M,0.0,N,0.0,K*44
$GPXTE,V,V,,,N,S*43
$GPRMC,010312,V,3734.5030,N,12226.0619,W,0.0,0.0,081003,15.1,E,S*3C
$GPRMB,V,,,,,,,,,,,,A,S*0E
$GPGGA,010312,3734.5030,N,12226.0619,W,8,09,2.0,35.5,M,-28.4,M,,*4D
$GPGSA,A,3,04,07,08,09,11,26,27,28,29,,,,3.6,2.0,3.0*34
$GPGSV,3,1,09,04,17,158,40,07,86,087,51,08,32,131,44,09,22,314,42*79
$GPGSV,3,2,09,11,13,046,38,26,39,260,46,27,05,135,33,28,51,055,48*77
$GPGSV,3,3,09,29,36,236,45*48
$GPGLL,3734.5030,N,12226.0619,W,010312,V,S*5F
$GPBOD,,T,,M,,*47
$GPBWC,010312,,,,,,T,,M,,N,,S*68
$GPVTG,0.0,T,344.9,M,0.0,N,0.0,K*44
$GPXTE,V,V,,,N,S*43
$GPRMC,010314,V,3734.5030,N,12226.0619,W,0.0,0.0,081003,15.1,E,S*3A
$GPRMB,V,,,,,,,,,,,,A,S*0E
$GPGGA,010314,3734.5030,N,12226.0619,W,8,09,2.0,35.5,M,-28.4,M,,*4B
$GPGSA,A,3,04,07,08,09,11,26,27,28,29,,,,3.6,2.0,3.0*34
$GPGSV,3,1,09,04,17,158,40,07,86,087,52,08,32,131,44,09,22,314,42*7A
$GPGSV,3,2,09,11,13,046,39,26,39,260,46,27,05,135,33,28,51,055,48*76
$GPGSV,3,3,09,29,36,236,45*48
$GPGLL,3734.5030,N,12226.0619,W,010314,V,S*59
$GPBOD,,T,,M,,*47
$GPBWC,010314,,,,,,T,,M,,N,,S*6E
$GPVTG,0.0,T,344.9,M,0.0,N,0.0,K*44
$GPXTE,V,V,,,N,S*43
$GPRMC,010316,V,3734.5030,N,12226.0619,W,0.0,0.0,081003,15.1,E,S*38
$GPRMB,V,,,,,,,,,,,,A,S*0E
$GPGGA,010316,3734.5030,N,12226.0619,W,8,09,2.0,35.5,M,-28.4,M,,*49
$GPGSA,A,3,04,07,08,09,11,26,27,28,29,,,,3.6,2.0,3.0*34
$GPGSV,3,1,09,04,17,158,40,07,86,087,52,08,32,131,44,09,22,314,42*7A
$GPGSV,3,2,09,11,13,046,38,26,39,260,46,27,05,135,34,28,51,055,48*70
$GPGSV,3,3,09,29,36,236,45*48
$GPGLL,3734.5030,N,12226.0619,W,010316,V,S*5B
$GPBOD,,T,,M,,*47
$GPBWC,010316,,,,,,T,,M,,N,,S*6C
$GPVTG,0.0,T,344.9,M,0.0,N,0.0,K*44
$GPXTE,V,V,,,N,S*43
$GPRMC,010318,V,3734.5030,N,12226.0619,W,0.0,0.0,081003,15.1,E,S*36
$GPRMB,V,,,,,,,,,,,,A,S*0E
$GPGGA,010318,3734.5030,N,12226.0619,W,8,09,2.0,35.5,M,-28.4,M,,*47
$GPGSA,A,3,04,07,08,09,11,26,27,28,29,,,,3.6,2.0,3.0*34
$GPGSV,3,1,09,04,17,158,40,07,86,087,52,08,32,131,44,09,22,314,42*7A
$GPGSV,3,2,09,11,13,046,38,26,39,260,46,27,05,135,35,28,51,055,48*71
$GPGSV,3,3,09,29,36,236,45*48
$GPGLL,3734.5030,N,12226.0619,W,010318,V,S*55
$GPBOD,,T,,M,,*47
$GPBWC,010318,,,,,,T,,M,,N,,S*62
$GPVTG,0.0,T,344.9,M,0.0,N,0.0,K*44
$GPXTE,V,V,,,N,S*43
