$IIGLL,4832.242,N,12249.506,W,202644,A,D*47
$IIRMB,A,0.06,R,,008,,,,,0.13,338.0,,V,D*46
$IIRMC,202644,A,4832.242,N,12249.506,W,9.3,314.0,220603,19,E,D*34
$IIMWV,286.5,R,7.9,N,A*3A
$IIMWV,231.5,T,9.6,N,A*31
$IIVHW,,T,,M,8.29,N,15.35,K*64
$IIVPW,-5.16,N,-2.66,M*52
$IIVWR,073.5,L,7.9,N,4.1,M,14.6,K*6E
$IIVWT,128.5,L,9.6,N,4.9,M,17.8,K*63
$IIGGA,202645,4832.242,N,12249.506,W,2,08,1,-14,M,,,1,*36
$IIVTG,313.5,T,294.5,M,9.3,N,17.2,K*69
$IIXTE,A,A,0.06,R,N,D*09
$IIAAM,V,V,,N,*2F
$IIAPB,A,A,0.06,R,N,V,V,,,008,319.0,M,,,D*6F
$IIBWC,202646,,,,,338.0,T,319.0,M,0.13,N,008*22
$IIDBT,154.0,f,46.95,M,25.66,F*18
$IIGLL,4832.245,N,12249.512,W,202646,A,D*47
$IIRMB,A,0.06,R,,008,,,,,0.13,338.0,,V,D*46
$IIRMC,202646,A,4832.245,N,12249.512,W,9.3,313.0,220603,19,E,D*33
$IIMWV,285.5,R,9.3,N,A*3D
$IIMWV,235.0,T,10.9,N,A*07
$IIVHW,,T,,M,8.72,N,16.15,K*6B
$IIVPW,-5.00,N,-2.58,M*58
$IIVWR,074.5,L,9.3,N,4.8,M,17.2,K*63
$IIVWT,125.0,L,10.9,N,5.6,M,20.2,K*5C
$IIAAM,V,V,,N,*2F
$IIAPB,A,A,0.06,R,N,V,V,,,008,319.0,M,,,D*6F
$IIBWC,202648,,,,,338.0,T,319.0,M,0.13,N,008*2C
$IIDBT,151.8,f,46.28,M,25.30,F*10
$IIGLL,4832.248,N,12249.518,W,202648,A,D*4E
$IIRMB,A,0.06,R,,008,,,,,0.13,338.0,,V,D*46
$IIRMC,202648,A,4832.248,N,12249.518,W,9.3,312.0,220603,19,E,D*3B
$IIMWV,282.5,R,10.6,N,A*07
$IIMWV,238.0,T,12.2,N,A*03
$IIVHW,,T,,M,8.72,N,16.15,K*6B
$IIVPW,-4.62,N,-2.38,M*5B
$IIVWR,066.0,L,10.9,N,5.6,M,20.2,K*5C
$IIVWT,113.5,L,10.8,N,5.6,M,20.0,K*5F
$IIGSA,,3,14,23,31,15,18,11,03,09,,,,,,1,*7A
$IIGSV,2,1,24,14,76,160,44,23,57,069,42,31,31,253,43,15,31,138,41*68
$IIGSV,2,2,24,18,26,081,42,11,25,306,44,03,22,223,39,09,18,044,40*66
$IIMTW,13.5,C*14
$IIZDA,202650,22,06,2003,,*5B
$IIHVM,19,E*1E
$IIZTG,202650,000050,008*5B
$IIGGA,202650,4832.252,N,12249.524,W,2,08,1,-14,M,,,1,*33
$IIVLW,1298.2,N,10.41,N*79
$IIVTG,311.5,T,292.5,M,9.3,N,17.2,K*6D
$IIXTE,A,A,0.06,R,N,D*09
$IIAAM,V,V,,N,*2F
$IIAPB,A,A,0.06,R,N,V,V,,,008,319.0,M,,,D*6F
$IIBWC,202651,,,,,338.0,T,319.0,M,0.13,N,008*24
$IIDBT,151.2,f,46.10,M,25.20,F*10
$IIGLL,4832.252,N,12249.524,W,202651,A,D*42
$IIRMB,A,0.06,R,,008,,,,,0.13,338.0,,V,D*46
$IIRMC,202651,A,4832.252,N,12249.524,W,9.3,311.5,220603,19,E,D*31
$IIMWV,288.0,R,10.6,N,A*08
$IIMWV,240.5,T,11.5,N,A*0D
$IIVHW,,T,,M,8.94,N,16.56,K*64
$IIVPW,-4.40,N,-2.27,M*55
$IIVWR,072.0,L,10.6,N,5.5,M,19.6,K*5B
$IIVWT,119.5,L,11.5,N,5.9,M,21.3,K*54
$IIAAM,V,V,,N,*2F
$IIAPB,A,A,0.06,R,N,V,V,,,008,319.0,M,,,D*6F
$IIBWC,202652,,,,,338.0,T,319.0,M,0.13,N,008*27
$IIDBT,150.3,f,45.82,M,25.05,F*1F
$IIGLL,4832.255,N,12249.530,W,202653,A,D*42
$IIRMB,A,0.06,R,,008,,,,,0.13,338.0,,V,D*46
$IIRMC,202653,A,4832.255,N,12249.530,W,9.3,310.5,220603,19,E,D*30
$IIMWV,288.5,R,10.0,N,A*0B
$IIMWV,240.5,T,10.8,N,A*01
$IIVHW,,T,,M,8.71,N,16.13,K*6E
$IIVPW,-4.42,N,-2.28,M*58
$IIVWR,071.5,L,10.0,N,5.2,M,18.5,K*5E
$IIVWT,120.5,L,11.0,N,5.7,M,20.4,K*53
$IIAAM,V,V,,N,*2F
$IIAPB,A,A,0.06,R,N,V,V,,,008,319.0,M,,,D*6F
$IIBWC,202654,,,,,338.0,T,319.0,M,0.13,N,008*21
$IIDBT,150.4,f,45.85,M,25.06,F*1C
$IIGLL,4832.258,N,12249.536,W,202654,A,D*4E
$IIRMB,A,0.06,R,,008,,,,,0.13,338.0,,V,D*46
$IIRMC,202654,A,4832.258,N,12249.536,W,9.3,310.5,220603,19,E,D*3C
$IIMWV,275.5,R,10.9,N,A*00
$IIMWV,234.5,T,13.3,N,A*0A
$IIVHW,,T,,M,8.71,N,16.13,K*6E
$IIVPW,-5.36,N,-2.76,M*51
$IIVWR,084.5,L,9.9,N,5.1,M,18.3,K*60
$IIVWT,128.0,L,12.5,N,6.4,M,23.1,K*5E
$IIGGA,202655,4832.258,N,12249.536,W,2,08,1,-14,M,,,1,*3F
$IIVLW,1298.2,N,10.41,N*79
$IIVTG,310.5,T,291.5,M,9.3,N,17.2,K*6F
$IIXTE,A,A,0.06,R,N,D*09
$IIAAM,V,V,,N,*2F
$IIAPB,A,A,0.06,R,N,V,V,,,008,319.0,M,,,D*6F
$IIBWC,202656,,,,,338.0,T,319.0,M,0.13,N,008*23
$IIDBT,149.5,f,45.58,M,24.91,F*1A
$IIGLL,4832.262,N,12249.542,W,202656,A,D*46
$IIRMB,A,0.06,R,,008,,,,,0.13,338.0,,V,D*46
$IIRMC,202656,A,4832.262,N,12249.542,W,9.3,310.5,220603,19,E,D*34
$IIMWV,284.0,R,9.2,N,A*38
$IIMWV,234.0,T,11.0,N,A*0E
$IIVHW,,T,,M,8.71,N,16.13,K*6E
$IIVPW,-4.49,N,-2.31,M*5B
$IIVWR,073.5,L,10.1,N,5.2,M,18.7,K*5F
$IIVWT,121.0,L,11.2,N,5.8,M,20.7,K*59
$IIAAM,V,V,,N,*2F
$IIAPB,A,A,0.06,R,N,V,V,,,008,319.0,M,,,D*6F
$IIBWC,202658,,,,,338.0,T,319.0,M,0.13,N,008*2D
$IIDBT,145.8,f,44.45,M,24.30,F*1D
$IIGLL,4832.265,N,12249.548,W,202658,A,D*45
$IIRMB,A,0.06,R,,008,,,,,0.13,338.0,,V,D*46
$IIRMC,202658,A,4832.265,N,12249.548,W,9.3,310.0,220603,19,E,D*32
$IIMWV,294.5,R,10.2,N,A*04
$IIMWV,244.5,T,10.0,N,A*0D
$IIVHW,,T,,M,8.49,N,15.72,K*61
$IIVPW,-3.66,N,-1.89,M*51
$IIVWR,065.5,L,10.0,N,5.2,M,18.5,K*5B
$IIVWT,115.5,L,10.0,N,5.2,M,18.5,K*5B
$IIGSA,,3,14,23,31,15,18,11,03,09,,,,,,1,*7A
$IIGSV,2,1,24,14,76,160,43,23,57,069,42,31,31,253,43,15,31,138,42*6C
$IIGSV,2,2,24,18,26,081,41,11,25,306,44,03,22,223,40,09,18,044,39*65
$IIMTW,13.5,C*14
$IIZDA,202700,22,06,2003,,*5F
$IIHVM,19,E*1E
$IIZTG,202700,000050,008*5F
$IIGGA,202700,4832.268,N,12249.554,W,2,08,1,-12,M,,,1,*3F
$IIVLW,1298.2,N,10.41,N*79
$IIVTG,310.0,T,291.0,M,9.3,N,17.2,K*6F
$IIXTE,A,A,0.06,R,N,D*09
$IIAAM,V,V,,N,*2F
$IIAPB,A,A,0.06,R,N,V,V,,,008,319.0,M,,,D*6F
$IIBWC,202701,,,,,338.0,T,319.0,M,0.13,N,008*20
$IIDBT,144.6,f,44.09,M,24.10,F*18
$IIGLL,4832.268,N,12249.554,W,202701,A,D*48
$IIRMB,A,0.06,R,,008,,,,,0.13,338.0,,V,D*46
$IIRMC,202701,A,4832.268,N,12249.554,W,9.3,310.0,220603,19,E,D*3F
$IIMWV,293.0,R,10.6,N,A*02
$IIMWV,243.0,T,10.9,N,A*06
$IIVHW,,T,,M,9.10,N,16.85,K*67
$IIVPW,-4.13,N,-2.13,M*54
$IIVWR,067.0,L,10.6,N,5.5,M,19.6,K*5F
$IIVWT,117.0,L,10.9,N,5.6,M,20.2,K*5D
$IIAAM,V,V,,N,*2F
$IIAPB,A,A,0.06,R,N,V,V,,,008,319.0,M,,,D*6F
$IIBWC,202702,,,,,338.0,T,319.0,M,0.13,N,008*23
$IIDBT,144.2,f,43.96,M,24.03,F*1F
$IIGLL,4832.272,N,12249.560,W,202703,A,D*46
$IIRMB,A,0.06,R,,008,,,,,0.13,338.0,,V,D*46
$IIRMC,202703,A,4832.272,N,12249.560,W,9.3,310.0,220603,19,E,D*31
$IIMWV,301.5,R,10.3,N,A*08
$IIMWV,249.0,T,9.4,N,A*39
$IIVHW,,T,,M,8.74,N,16.19,K*61
$IIVPW,-3.83,N,-1.97,M*55
$IIVWR,063.5,L,9.9,N,5.1,M,18.3,K*69
$IIVWT,113.5,L,9.6,N,4.9,M,17.8,K*6B
$IIAAM,V,V,,N,*2F
$IIAPB,A,A,0.06,R,N,V,V,,,008,319.0,M,,,D*6F
$IIBWC,202704,,,,,338.0,T,319.0,M,0.13,N,008*25
$IIDBT,144.2,f,43.96,M,24.03,F*1F
$IIGLL,4832.275,N,12249.566,W,202704,A,D*40
$IIRMB,A,0.06,R,,008,,,,,0.13,338.0,,V,D*46
$IIRMC,202704,A,4832.275,N,12249.566,W,9.3,310.5,220603,19,E,D*32
$IIMWV,286.5,R,9.9,N,A*34
$IIMWV,239.0,T,11.0,N,A*03
$IIVHW,,T,,M,8.47,N,15.69,K*65
$IIVPW,-4.36,N,-2.25,M*56
$IIVWR,073.5,L,9.9,N,5.1,M,18.3,K*68
$IIVWT,121.0,L,11.0,N,5.7,M,20.4,K*57
$IIGGA,202705,4832.275,N,12249.566,W,2,08,1,-12,M,,,1,*37
$IIVLW,1298.2,N,10.41,N*79
$IIVTG,310.5,T,291.5,M,9.3,N,17.2,K*6F
$IIXTE,A,A,0.06,R,N,D*09
$IIAAM,V,V,,N,*2F
$IIAPB,A,A,0.06,R,N,V,V,,,008,319.0,M,,,D*6F
$IIBWC,202706,,,,,338.0,T,319.0,M,0.13,N,008*27
$IIDBT,141.7,f,43.20,M,23.61,F*11
$IIGLL,4832.278,N,12249.572,W,202706,A,D*4A
$IIRMB,A,0.06,R,,008,,,,,0.13,338.0,,V,D*46
$IIRMC,202706,A,4832.278,N,12249.572,W,9.3,310.5,220603,19,E,D*38
$IIMWV,293.5,R,8.2,N,A*3A
$IIMWV,234.0,T,9.2,N,A*35
$IIVHW,,T,,M,8.71,N,16.13,K*6E
$IIVPW,-5.12,N,-2.64,M*54
$IIVWR,066.5,L,8.2,N,4.2,M,15.2,K*68
$IIVWT,126.0,L,9.2,N,4.7,M,17.0,K*6A
$IIAAM,V,V,,N,*2F
$IIAPB,A,A,0.06,R,N,V,V,,,008,319.0,M,,,D*6F
$IIBWC,202708,,,,,338.0,T,319.0,M,0.13,N,008*29
$IIDBT,137.8,f,42.01,M,22.96,F*14
$IIGLL,4832.282,N,12249.578,W,202708,A,D*4B
$IIRMB,A,0.06,R,,008,,,,,0.13,338.0,,V,D*46
$IIRMC,202708,A,4832.282,N,12249.578,W,9.3,311.0,220603,19,E,D*3D
$IIMWV,280.0,R,9.4,N,A*3A
$IIMWV,232.5,T,11.6,N,A*0B
$IIVHW,,T,,M,8.72,N,16.15,K*6B
$IIVPW,-5.31,N,-2.74,M*54
$IIVWR,080.0,L,9.4,N,4.8,M,17.4,K*6C
$IIVWT,127.5,L,11.6,N,6.0,M,21.5,K*56
$IIGSA,,3,14,23,31,15,18,11,03,09,,,,,,1,*7A
$IIGSV,2,1,24,14,76,160,44,23,57,069,41,31,31,253,43,15,31,138,41*6B
$IIGSV,2,2,24,18,26,081,41,11,25,306,43,03,22,223,40,09,18,044,42*6E
$IIMTW,13.5,C*14
$IIZDA,202710,22,06,2003,,*5E
$IIHVM,19,E*1E
$IIGGA,202710,4832.285,N,12249.584,W,2,08,1,-12,M,,,1,*30
$IIVLW,1298.2,N,10.41,N*79
$IIVTG,311.5,T,292.5,M,9.3,N,17.2,K*6D
$IIBWC,202711,,,,,,T,,M,,N,*06
$IIDBT,135.9,f,41.43,M,22.65,F*1E
$IIGLL,4832.285,N,12249.584,W,202711,A,D*47
$IIRMC,202711,A,4832.285,N,12249.584,W,9.3,311.5,220603,19,E,D*34
$IIMWV,286.0,R,8.5,N,A*3C
$IIMWV,229.5,T,10.7,N,A*01
$IIVHW,,T,,M,9.36,N,17.33,K*6F
$IIVPW,-5.61,N,-2.89,M*53
$IIVWR,074.0,L,8.5,N,4.4,M,15.7,K*6A
$IIVWT,129.0,L,10.5,N,5.4,M,19.4,K*52
$IIBWC,202712,,,,,,T,,M,,N,*05
$IIDBT,135.9,f,41.43,M,22.65,F*1E
$IIGLL,4832.285,N,12249.584,W,202712,A,D*44
$IIRMC,202712,A,4832.289,N,12249.589,W,9.2,311.5,220603,19,E,D*37
$IIMWV,287.5,R,7.8,N,A*3A
$IIMWV,228.5,T,9.9,N,A*36
$IIVHW,,T,,M,9.14,N,16.93,K*64
$IIVPW,-6.17,N,-3.18,M*58
$IIVWR,072.5,L,7.8,N,4.0,M,14.4,K*6D
$IIVWT,132.5,L,10.0,N,5.2,M,18.5,K*5E
$IIBWC,202714,,,,,,T,,M,,N,*03
$IIDBT,132.2,f,40.30,M,22.03,F*17
$IIGLL,4832.292,N,12249.595,W,202714,A,D*44
$IIRMC,202714,A,4832.292,N,12249.595,W,9.3,312.0,220603,19,E,D*31
$IIMWV,286.0,R,8.8,N,A*31
$IIMWV,232.5,T,10.6,N,A*0A
$IIVHW,,T,,M,8.92,N,16.52,K*66
$IIVPW,-5.43,N,-2.80,M*5A
$IIVWR,074.0,L,8.8,N,4.5,M,16.3,K*61
$IIVWT,126.5,L,10.5,N,5.4,M,19.4,K*58
$IIGGA,202715,4832.292,N,12249.595,W,2,08,1,-12,M,,,1,*33
$IIVLW,1298.2,N,10.41,N*79
$IIVTG,312.5,T,293.5,M,9.2,N,17.0,K*6C
$IIBWC,202716,,,,,,T,,M,,N,*01
$IIDBT,131.9,f,40.21,M,21.98,F*1E
$IIGLL,4832.296,N,12249.601,W,202716,A,D*4C
$IIRMC,202716,A,4832.296,N,12249.601,W,9.3,313.0,220603,19,E,D*38
$IIMWV,298.5,R,8.8,N,A*3B
$IIMWV,237.5,T,9.1,N,A*30
$IIVHW,,T,,M,9.14,N,16.93,K*64
$IIVPW,-4.91,N,-2.53,M*5A
$IIVWR,061.5,L,8.8,N,4.5,M,16.3,K*60
$IIVWT,124.0,L,9.3,N,4.8,M,17.2,K*64
$IIBWC,202718,,,,,,T,,M,,N,*0F
$IIDBT,129.9,f,39.60,M,21.65,F*1E
$IIGLL,4832.296,N,12249.601,W,202718,A,D*42
$IIRMC,202718,A,4832.296,N,12249.601,W,9.2,313.0,220603,19,E,D*37
$IIMWV,292.0,R,8.8,N,A*34
$IIMWV,233.5,T,10.1,N,A*0C
$IIVHW,,T,,M,9.32,N,17.26,K*6F
$IIVPW,-5.54,N,-2.86,M*5A
$IIVWR,068.0,L,8.8,N,4.5,M,16.3,K*6C
$IIVWT,128.0,L,10.3,N,5.3,M,19.1,K*57
$IIGSA,,3,14,23,31,15,18,11,03,09,,,,,,1,*7A
$IIGSV,2,1,24,14,77,158,45,23,56,069,43,31,31,252,44,15,30,138,41*64
$IIGSV,2,2,24,18,26,081,41,11,26,306,43,03,21,222,39,09,18,044,32*66
$IIMTW,13.5,C*14
$IIZDA,202720,22,06,2003,,*5D
$IIHVM,19,E*1E
$IIGGA,202720,4832.303,N,12249.612,W,2,08,1,-14,M,,,1,*36
$IIVLW,1298.2,N,10.41,N*79
$IIVTG,313.0,T,294.0,M,9.2,N,17.0,K*6A
$IIBWC,202721,,,,,,T,,M,,N,*05
$IIDBT,127.6,f,38.90,M,21.26,F*16
$IIGLL,4832.303,N,12249.612,W,202721,A,D*47
$IIRMC,202721,A,4832.303,N,12249.612,W,9.2,313.0,220603,19,E,D*32
$IIMWV,290.5,R,7.8,N,A*3C
$IIMWV,228.5,T,9.7,N,A*38
$IIVHW,,T,,M,9.14,N,16.93,K*64
$IIVPW,-6.06,N,-3.12,M*52
$IIVWR,069.5,L,7.8,N,4.0,M,14.4,K*67
$IIVWT,130.5,L,9.6,N,4.9,M,17.8,K*6A
$IIBWC,202722,,,,,,T,,M,,N,*06
$IIDBT,126.6,f,38.60,M,21.10,F*1D
$IIGLL,4832.307,N,12249.618,W,202722,A,D*4A
$IIRMC,202722,A,4832.307,N,12249.618,W,9.3,313.5,220603,19,E,D*3B
$IIMWV,288.5,R,7.4,N,A*39
$IIMWV,226.5,T,9.6,N,A*37
$IIVHW,,T,,M,8.92,N,16.52,K*66
$IIVPW,-6.14,N,-3.16,M*55
$IIVWR,071.5,L,7.4,N,3.8,M,13.7,K*69
$IIVWT,132.0,L,8.2,N,4.2,M,15.2,K*6B
$IIBWC,202724,,,,,,T,,M,,N,*00
$IIDBT,127.8,f,38.96,M,21.30,F*19
$IIGLL,4832.307,N,12249.618,W,202724,A,D*4C
$IIRMC,202724,A,4832.307,N,12249.618,W,9.2,313.5,220603,19,E,D*3C
$IIMWV,281.0,R,6.9,N,A*39
$IIMWV,222.5,T,10.0,N,A*0D
$IIVHW,,T,,M,8.71,N,16.13,K*6E
$IIVPW,-6.42,N,-3.31,M*53
$IIVWR,079.0,L,6.9,N,3.6,M,12.8,K*68
$IIVWT,138.0,L,10.2,N,5.3,M,18.9,K*5E
$IIGGA,202725,4832.310,N,12249.623,W,2,08,1,-14,M,,,1,*33
$IIVLW,1298.2,N,10.41,N*79
$IIVTG,314.0,T,295.0,M,9.2,N,17.0,K*6C
$IIBWC,202726,,,,,,T,,M,,N,*02
$IIDBT,125.0,f,38.11,M,20.83,F*15
$IIGLL,4832.314,N,12249.629,W,202726,A,D*4E
$IIRMC,202726,A,4832.314,N,12249.629,W,9.2,314.0,220603,19,E,D*3C
$IIMWV,283.5,R,6.5,N,A*32
$IIMWV,221.5,T,9.6,N,A*30
$IIVHW,,T,,M,8.71,N,16.13,K*6E
$IIVPW,-6.52,N,-3.36,M*55
$IIVWR,076.5,L,6.5,N,3.4,M,12.0,K*64
$IIVWT,140.5,L,10.0,N,5.2,M,18.5,K*5B
$IIBWC,202728,,,,,,T,,M,,N,*0C
$IIDBT,123.6,f,37.68,M,20.60,F*19
$IIGLL,4832.318,N,12249.634,W,202728,A,D*40
$IIRMC,202728,A,4832.318,N,12249.634,W,9.2,314.5,220603,19,E,D*37
$IIMWV,286.0,R,7.2,N,A*34
$IIMWV,225.0,T,9.8,N,A*3F
$IIVHW,,T,,M,8.92,N,16.52,K*66
$IIVPW,-6.08,N,-3.13,M*5D
$IIVWR,067.0,L,6.7,N,3.5,M,12.4,K*66
$IIVWT,135.5,L,8.8,N,4.5,M,16.3,K*66
$IIGSA,,3,14,23,31,15,18,11,03,09,,,,,,1,*7A
$IIGSV,2,1,24,14,77,158,44,23,56,069,44,31,31,252,43,15,30,138,42*66
$IIGSV,2,2,24,18,26,081,41,11,26,306,42,03,21,222,41,09,18,044,40*6D
$IIMTW,13.5,C*14
$IIZDA,202730,22,06,2003,,*5C
$IIHVM,19,E*1E
$IIGGA,202730,4832.321,N,12249.639,W,2,08,1,-14,M,,,1,*3E
$IIVLW,1298.3,N,10.51,N*79
$IIVTG,315.0,T,296.0,M,9.2,N,17.0,K*6E
$IIBWC,202731,,,,,,T,,M,,N,*04
$IIDBT,121.8,f,37.13,M,20.30,F*1C
$IIGLL,4832.321,N,12249.639,W,202731,A,D*4F
$IIRMC,202731,A,4832.321,N,12249.639,W,9.2,315.0,220603,19,E,D*3C
$IIMWV,275.5,R,8.6,N,A*36
$IIMWV,227.0,T,11.8,N,A*04
$IIVHW,,T,,M,8.94,N,16.56,K*64
$IIVPW,-6.10,N,-3.14,M*53
$IIVWR,084.0,L,8.7,N,4.5,M,16.1,K*63
$IIVWT,132.0,L,11.6,N,6.0,M,21.5,K*57
$IIBWC,202732,,,,,,T,,M,,N,*07
$IIDBT,121.5,f,37.04,M,20.25,F*13
$IIGLL,4832.325,N,12249.645,W,202732,A,D*43
$IIRMC,202732,A,4832.325,N,12249.645,W,9.2,315.5,220603,19,E,D*35
$IIMWV,278.0,R,8.2,N,A*3A
$IIMWV,227.0,T,11.1,N,A*0D
$IIVHW,,T,,M,8.72,N,16.15,K*6B
$IIVPW,-5.95,N,-3.07,M*5F
$IIVWR,082.0,L,8.2,N,4.2,M,15.2,K*67
$IIVWT,133.0,L,11.1,N,5.7,M,20.6,K*57
$IIBWC,202734,,,,,,T,,M,,N,*01
$IIDBT,120.1,f,36.62,M,20.01,F*11
$IIGLL,4832.329,N,12249.650,W,202734,A,D*4D
$IIRMC,202734,A,4832.329,N,12249.650,W,9.2,316.0,220603,19,E,D*3D
$IIMWV,282.5,R,8.3,N,A*3B
$IIMWV,226.0,T,10.4,N,A*08
$IIVHW,,T,,M,8.94,N,16.56,K*64
$IIVPW,-6.21,N,-3.20,M*56
$IIVWR,077.5,L,7.7,N,4.0,M,14.3,K*60
$IIVWT,134.0,L,10.4,N,5.4,M,19.3,K*58
$IIGGA,202735,4832.329,N,12249.650,W,2,08,1,-14,M,,,1,*3C
$IIVLW,1298.3,N,10.51,N*79
$IIVTG,316.5,T,297.5,M,9.2,N,17.0,K*6C
$IIBWC,202736,,,,,,T,,M,,N,*03
$IIDBT,120.5,f,36.74,M,20.08,F*1B
$IIGLL,4832.329,N,12249.650,W,202736,A,D*4F
$IIRMC,202736,A,4832.329,N,12249.650,W,9.2,316.5,220603,19,E,D*3A
$IIMWV,285.5,R,7.3,N,A*33
$IIMWV,226.0,T,9.7,N,A*33
$IIVHW,,T,,M,8.72,N,16.15,K*6B
$IIVPW,-6.06,N,-3.12,M*52
$IIVWR,074.5,L,7.3,N,3.8,M,13.5,K*69
$IIVWT,134.0,L,9.7,N,5.0,M,18.0,K*65
$IIBWC,202738,,,,,,T,,M,,N,*0D
$IIDBT,120.0,f,36.59,M,20.00,F*19
$IIGLL,4832.337,N,12249.660,W,202738,A,D*4D
$IIRMC,202738,A,4832.337,N,12249.660,W,9.2,317.0,220603,19,E,D*3C
$IIMWV,282.5,R,7.4,N,A*33
$IIMWV,224.5,T,10.2,N,A*09
$IIVHW,,T,,M,8.94,N,16.56,K*64
$IIVPW,-6.38,N,-3.29,M*57
$IIVWR,077.5,L,7.4,N,3.8,M,13.7,K*6F
$IIVWT,135.5,L,10.2,N,5.3,M,18.9,K*56
$IIGSA,,3,14,23,31,15,18,11,03,09,,,,,,1,*7A
$IIGSV,2,1,24,14,77,158,45,23,56,069,44,31,31,252,44,15,30,138,41*63
$IIGSV,2,2,24,18,26,081,40,11,26,306,42,03,21,222,40,09,18,044,40*6D
$IIMTW,13.5,C*14
$IIZDA,202740,22,06,2003,,*5B
$IIHVM,19,E*1E
$IIGGA,202740,4832.340,N,12249.665,W,2,08,1,-15,M,,,1,*36
$IIVLW,1298.3,N,10.51,N*79
$IIVTG,317.5,T,298.5,M,9.2,N,17.0,K*62
$IIBWC,202741,,,,,,T,,M,,N,*03
$IIDBT,118.7,f,36.19,M,19.78,F*14
$IIGLL,4832.340,N,12249.665,W,202741,A,D*46
$IIRMC,202741,A,4832.340,N,12249.665,W,9.2,317.5,220603,19,E,D*32
$IIMWV,274.5,R,7.9,N,A*37
$IIMWV,225.0,T,11.1,N,A*0F
$IIVHW,,T,,M,8.50,N,15.74,K*6F
$IIVPW,-6.01,N,-3.10,M*57
$IIVWR,085.5,L,7.9,N,4.1,M,14.6,K*67
$IIVWT,135.0,L,11.1,N,5.7,M,20.6,K*51
$IIBWC,202742,,,,,,T,,M,,N,*00
$IIDBT,119.1,f,36.31,M,19.85,F*1B
$IIGLL,4832.340,N,12249.665,W,202742,A,D*45
$IIRMC,202742,A,4832.340,N,12249.665,W,9.2,318.0,220603,19,E,D*3B
$IIMWV,278.5,R,7.5,N,A*37
$IIMWV,223.5,T,10.7,N,A*0B
$IIVHW,,T,,M,8.94,N,16.56,K*64
$IIVPW,-6.48,N,-3.34,M*5C
$IIVWR,081.5,L,7.5,N,3.9,M,13.9,K*68
$IIVWT,135.5,L,10.6,N,5.5,M,19.6,K*5A
$IIBWC,202744,,,,,,T,,M,,N,*06
$IIDBT,118.6,f,36.16,M,19.76,F*14
$IIGLL,4832.344,N,12249.670,W,202744,A,D*43
$IIRMC,202744,A,4832.348,N,12249.676,W,9.2,318.0,220603,19,E,D*37
$IIMWV,279.5,R,8.2,N,A*3E
$IIMWV,226.5,T,11.1,N,A*09
$IIVHW,,T,,M,8.94,N,16.56,K*64
$IIVPW,-6.15,N,-3.17,M*55
$IIVWR,080.5,L,8.2,N,4.2,M,15.2,K*60
$IIVWT,133.5,L,11.1,N,5.7,M,20.6,K*52
$IIGGA,202745,4832.348,N,12249.676,W,2,08,1,-15,M,,,1,*39
$IIVLW,1298.3,N,10.51,N*79
$IIVTG,318.0,T,299.0,M,9.2,N,17.0,K*6C
$IIBWC,202746,,,,,,T,,M,,N,*04
$IIDBT,118.0,f,35.98,M,19.66,F*16
$IIGLL,4832.348,N,12249.676,W,202746,A,D*4B
$IIRMC,202746,A,4832.352,N,12249.681,W,9.2,318.0,220603,19,E,D*36
$IIMWV,272.5,R,9.9,N,A*3F
$IIMWV,230.0,T,12.9,N,A*00
$IIVHW,,T,,M,8.72,N,16.15,K*6B
$IIVPW,-5.61,N,-2.89,M*53
$IIVWR,087.5,L,9.9,N,5.1,M,18.3,K*63
$IIVWT,130.0,L,12.9,N,6.6,M,23.9,K*51
$IIBWC,202748,,,,,,T,,M,,N,*0A
$IIDBT,117.2,f,35.73,M,19.53,F*18
$IIGLL,4832.352,N,12249.681,W,202748,A,D*46
$IIRMC,202748,A,4832.352,N,12249.681,W,9.2,318.0,220603,19,E,D*38
$IIMWV,266.5,R,9.8,N,A*3B
$IIMWV,227.0,T,13.3,N,A*0D
$IIVHW,,T,,M,8.52,N,15.78,K*61
$IIVPW,-5.81,N,-2.99,M*5C
$IIVWR,093.5,L,9.8,N,5.1,M,18.1,K*65
$IIVWT,133.0,L,13.3,N,6.9,M,24.6,K*5E
$IIGSA,,3,14,23,31,15,18,11,03,09,,,,,,1,*7A
$IIGSV,2,1,24,14,77,158,45,23,56,069,42,31,31,252,44,15,30,138,41*65
$IIGSV,2,2,24,18,26,081,40,11,26,306,42,03,21,222,40,09,18,044,40*6D
$IIMTW,13.5,C*14
$IIZDA,202750,22,06,2003,,*5A
$IIHVM,19,E*1E
$IIGGA,202750,4832.360,N,12249.691,W,2,08,1,-15,M,,,1,*3E
$IIVLW,1298.3,N,10.51,N*79
$IIVTG,317.5,T,298.5,M,9.2,N,17.0,K*62
$IIBWC,202751,,,,,,T,,M,,N,*02
$IIDBT,117.2,f,35.73,M,19.53,F*18
$IIGLL,4832.360,N,12249.691,W,202751,A,D*4E
$IIRMC,202751,A,4832.360,N,12249.691,W,9.2,317.5,220603,19,E,D*3A
$IIMWV,271.0,R,8.4,N,A*35
$IIMWV,225.0,T,11.8,N,A*06
$IIVHW,,T,,M,8.50,N,15.74,K*6F
$IIVPW,-6.01,N,-3.10,M*57
$IIVWR,095.5,L,7.6,N,3.9,M,14.1,K*61
$IIVWT,140.0,L,11.7,N,6.0,M,21.7,K*51
$IIBWC,202752,,,,,,T,,M,,N,*01
$IIDBT,117.6,f,35.85,M,19.60,F*15
$IIGLL,4832.363,N,12249.697,W,202752,A,D*48
$IIRMC,202752,A,4832.363,N,12249.697,W,9.2,317.5,220603,19,E,D*3C
$IIMWV,264.5,R,7.6,N,A*39
$IIMWV,220.0,T,11.7,N,A*0C
$IIVHW,,T,,M,8.29,N,15.35,K*64
$IIVPW,-5.96,N,-3.07,M*5C
$IIVWR,085.0,L,7.4,N,3.8,M,13.7,K*67
$IIVWT,137.5,L,10.9,N,5.6,M,20.2,K*5A
$IIBWC,202754,,,,,,T,,M,,N,*07
$IIDBT,117.6,f,35.85,M,19.60,F*15
$IIGLL,4832.363,N,12249.697,W,202754,A,D*4E
$IIRMC,202754,A,4832.363,N,12249.697,W,9.2,317.0,220603,19,E,D*3F
$IIMWV,288.5,R,8.4,N,A*36
$IIMWV,236.0,T,9.6,N,A*33
$IIVHW,,T,,M,8.07,N,14.94,K*62
$IIVPW,-4.51,N,-2.32,M*51
$IIVWR,077.0,L,9.1,N,4.7,M,16.9,K*62
$IIVWT,124.5,L,10.7,N,5.5,M,19.8,K*55
$IIGGA,202755,4832.367,N,12249.702,W,2,08,1,-15,M,,,1,*37
$IIVLW,1298.3,N,10.51,N*79
$IIVTG,316.5,T,297.5,M,9.2,N,17.0,K*6C
$IIBWC,202756,,,,,,T,,M,,N,*05
$IIDBT,117.1,f,35.70,M,19.51,F*1A
$IIGLL,4832.367,N,12249.702,W,202756,A,D*45
$IIRMC,202756,A,4832.371,N,12249.708,W,9.2,316.5,220603,19,E,D*3D
$IIMWV,279.0,R,10.2,N,A*02
$IIMWV,235.5,T,12.2,N,A*0B
$IIVHW,,T,,M,8.50,N,15.74,K*6F
$IIVPW,-4.81,N,-2.48,M*51
$IIVWR,081.0,L,10.2,N,5.3,M,18.9,K*5B
$IIVWT,124.5,L,12.2,N,6.3,M,22.6,K*51
$IIBWC,202758,,,,,,T,,M,,N,*0B
$IIDBT,117.3,f,35.76,M,19.55,F*1A
$IIGLL,4832.371,N,12249.708,W,202758,A,D*46
$IIRMC,202758,A,4832.374,N,12249.713,W,9.2,316.0,220603,19,E,D*39
$IIMWV,276.0,R,10.9,N,A*06
$IIMWV,235.0,T,13.2,N,A*0F
$IIVHW,,T,,M,8.72,N,16.15,K*6B
$IIVPW,-5.31,N,-2.74,M*54
$IIVWR,086.5,L,10.6,N,5.5,M,19.6,K*55
$IIVWT,127.5,L,13.3,N,6.9,M,24.6,K*5E
$IIGSA,,3,14,23,31,15,18,11,03,09,,,,,,1,*7A
$IIGSV,2,1,24,14,77,158,44,23,56,069,42,31,31,252,44,15,30,138,40*65
$IIGSV,2,2,24,18,26,081,42,11,26,306,43,03,21,222,39,09,18,044,41*61
$IIMTW,13.5,C*14
$IIZDA,202800,22,06,2003,,*50
$IIHVM,19,E*1E
$IIGGA,202800,4832.378,N,12249.719,W,2,08,1,-14,M,,,1,*3D
$IIVLW,1298.3,N,10.51,N*79
$IIVTG,316.0,T,297.0,M,9.2,N,17.0,K*6C
$IIBWC,202801,,,,,,T,,M,,N,*08
$IIDBT,116.4,f,35.49,M,19.40,F*14
$IIGLL,4832.378,N,12249.719,W,202801,A,D*4C
$IIRMC,202801,A,4832.378,N,12249.719,W,9.2,315.5,220603,19,E,D*3A
$IIMWV,273.0,R,9.3,N,A*31
$IIMWV,229.0,T,12.3,N,A*02
$IIVHW,,T,,M,8.50,N,15.74,K*6F
$IIVPW,-5.58,N,-2.88,M*58
$IIVWR,087.0,L,9.3,N,4.8,M,17.2,K*6A
$IIVWT,131.0,L,12.3,N,6.3,M,22.8,K*5F
$IIBWC,202802,,,,,,T,,M,,N,*0B
$IIDBT,116.7,f,35.58,M,19.45,F*12
$IIGLL,4832.381,N,12249.724,W,202802,A,D*47
$IIRMC,202802,A,4832.381,N,12249.724,W,9.2,315.5,220603,19,E,D*31
$IIMWV,274.5,R,8.4,N,A*35
$IIMWV,226.0,T,11.6,N,A*0B
$IIVHW,,T,,M,8.72,N,16.15,K*6B
$IIVPW,-6.06,N,-3.12,M*52
$IIVWR,085.5,L,8.4,N,4.3,M,15.6,K*66
$IIVWT,134.0,L,11.6,N,6.0,M,21.5,K*51
$IIBWC,202804,,,,,,T,,M,,N,*0D
$IIDBT,116.3,f,35.46,M,19.38,F*13
$IIGLL,4832.385,N,12249.730,W,202804,A,D*40
$IIRMC,202804,A,4832.385,N,12249.730,W,9.2,315.0,220603,19,E,D*33
$IIMWV,284.5,R,10.0,N,A*07
$IIMWV,237.5,T,11.4,N,A*0C
$IIVHW,,T,,M,8.72,N,16.15,K*6B
$IIVPW,-4.69,N,-2.42,M*5D
$IIVWR,075.5,L,10.0,N,5.2,M,18.5,K*5A
$IIVWT,122.5,L,11.4,N,5.9,M,21.1,K*5F
$IIGGA,202805,4832.385,N,12249.730,W,2,08,1,-14,M,,,1,*31
$IIVLW,1298.3,N,10.51,N*79
$IIVTG,315.0,T,296.0,M,9.2,N,17.0,K*6E
$IIBWC,202806,,,,,,T,,M,,N,*0F
$IIDBT,116.6,f,35.55,M,19.43,F*18
$IIGLL,4832.385,N,12249.730,W,202806,A,D*42
$IIRMC,202806,A,4832.385,N,12249.730,W,9.2,315.0,220603,19,E,D*31
$IIMWV,275.5,R,10.3,N,A*0A
$IIMWV,233.0,T,12.8,N,A*02
$IIVHW,,T,,M,8.72,N,16.15,K*6B
$IIVPW,-5.25,N,-2.71,M*54
$IIVWR,084.5,L,10.3,N,5.3,M,19.1,K*53
$IIVWT,127.0,L,12.8,N,6.6,M,23.7,K*58
$IIBWC,202808,,,,,,T,,M,,N,*01
$IIDBT,116.0,f,35.37,M,19.33,F*1D
$IIGLL,4832.388,N,12249.735,W,202808,A,D*44
$IIRMC,202808,A,4832.392,N,12249.741,W,9.2,314.5,220603,19,E,D*3B
$IIMWV,276.0,R,9.6,N,A*31
$IIMWV,228.5,T,12.7,N,A*02
$IIVHW,,T,,M,9.38,N,17.37,K*65
$IIVPW,-6.22,N,-3.21,M*54
$IIVWR,084.0,L,9.6,N,4.9,M,17.8,K*67
$IIVWT,131.5,L,12.7,N,6.5,M,23.5,K*54
$IIGSA,,3,14,23,31,15,18,11,03,09,,,,,,1,*7A
$IIGSV,2,1,24,14,77,158,44,23,56,069,43,31,31,252,43,15,30,138,40*63
$IIGSV,2,2,24,18,26,081,41,11,26,306,43,03,21,222,41,09,18,044,39*62
$IIMTW,13.7,C*16
$IIZDA,202810,22,06,2003,,*51
$IIHVM,19,E*1E
$IIGGA,202810,4832.395,N,12249.747,W,2,08,1,-14,M,,,1,*34
$IIVTG,314.5,T,295.5,M,9.2,N,17.0,K*6C
$IIBWC,202811,,,,,,T,,M,,N,*09
$IIDBT,116.6,f,35.55,M,19.43,F*18
$IIGLL,4832.395,N,12249.747,W,202811,A,D*45
$IIRMC,202811,A,4832.395,N,12249.747,W,9.1,314.5,220603,19,E,D*31
$IIMWV,273.0,R,9.0,N,A*32
$IIMWV,226.0,T,12.4,N,A*0A
$IIVHW,,T,,M,9.16,N,16.96,K*63
$IIVPW,-6.36,N,-3.28,M*58
$IIVWR,087.0,L,9.0,N,4.6,M,16.7,K*63
$IIVWT,134.0,L,12.4,N,6.4,M,23.0,K*53
$IIBWC,202812,,,,,,T,,M,,N,*0A
$IIDBT,116.5,f,35.52,M,19.41,F*1E
$IIGLL,4832.395,N,12249.747,W,202812,A,D*46
$IIRMC,202812,A,4832.395,N,12249.747,W,9.2,314.5,220603,19,E,D*31
$IIMWV,261.0,R,9.9,N,A*38
$IIMWV,221.5,T,14.8,N,A*02
$IIVHW,,T,,M,9.60,N,17.78,K*63
$IIVPW,-7.19,N,-3.71,M*58
$IIVWR,099.0,L,9.9,N,5.1,M,18.3,K*69
$IIVWT,138.5,L,14.8,N,7.6,M,27.4,K*53
$IIBWC,202814,,,,,,T,,M,,N,*0C
$IIDBT,116.5,f,35.52,M,19.41,F*1E
$IIGLL,4832.399,N,12249.752,W,202814,A,D*48
$IIRMC,202814,A,4832.403,N,12249.757,W,9.1,315.0,220603,19,E,D*39
$IIMWV,264.5,R,11.0,N,A*08
$IIMWV,227.0,T,14.9,N,A*00
$IIVHW,,T,,M,9.16,N,16.96,K*63
$IIVPW,-6.25,N,-3.22,M*50
$IIVWR,095.5,L,11.0,N,5.7,M,20.4,K*5A
$IIVWT,133.0,L,14.9,N,7.7,M,27.6,K*5F
$IIGGA,202815,4832.403,N,12249.757,W,2,08,1,-14,M,,,1,*38
$IIVLW,1298.4,N,10.61,N*7D
$IIVTG,315.0,T,296.0,M,9.1,N,16.9,K*65
$IIBWC,202816,,,,,,T,,M,,N,*0E
$IIDBT,116.0,f,35.37,M,19.33,F*1D
$IIGLL,4832.403,N,12249.757,W,202816,A,D*4B
$IIRMC,202816,A,4832.406,N,12249.763,W,9.1,315.0,220603,19,E,D*39
$IIMWV,262.0,R,9.5,N,A*37
$IIMWV,222.0,T,14.1,N,A*0D
$IIVHW,,T,,M,9.16,N,16.96,K*63
$IIVPW,-6.81,N,-3.51,M*5A
$IIVWR,098.0,L,9.5,N,4.9,M,17.6,K*67
$IIVWT,138.0,L,14.1,N,7.3,M,26.1,K*5E
$IIBWC,202818,,,,,,T,,M,,N,*00
$IIDBT,115.5,f,35.21,M,19.25,F*1B
$IIGLL,4832.406,N,12249.763,W,202818,A,D*47
$IIRMC,202818,A,4832.406,N,12249.763,W,9.1,315.0,220603,19,E,D*37
$IIMWV,265.5,R,9.0,N,A*30
$IIMWV,223.5,T,12.9,N,A*07
$IIVHW,,T,,M,8.72,N,16.15,K*6B
$IIVPW,-6.33,N,-3.26,M*53
$IIVWR,094.5,L,9.0,N,4.6,M,16.7,K*64
$IIVWT,135.5,L,12.7,N,6.5,M,23.5,K*50
$IIGSA,,3,14,23,31,15,18,11,03,09,,,,,,1,*7A
$IIGSV,2,1,24,14,77,158,45,23,56,069,44,31,31,252,43,15,30,138,41*64
$IIGSV,2,2,24,18,26,081,42,11,26,306,44,03,21,222,40,09,18,044,41*68
$IIMTW,13.7,C*16
$IIZDA,202820,22,06,2003,,*52
$IIHVM,19,E*1E
$IIGGA,202820,4832.412,N,12249.771,W,2,08,1,-14,M,,,1,*3A
$IIVLW,1298.4,N,10.61,N*7D
$IIVTG,315.0,T,296.0,M,9.1,N,16.9,K*65
$IIBWC,202821,,,,,,T,,M,,N,*0A
$IIDBT,116.3,f,35.46,M,19.38,F*13
$IIGLL,4832.412,N,12249.771,W,202821,A,D*4B
$IIRMC,202821,A,4832.412,N,12249.771,W,9.1,315.5,220603,19,E,D*3E
$IIMWV,262.0,R,9.0,N,A*32
$IIMWV,220.5,T,13.6,N,A*0A
$IIVHW,,T,,M,9.16,N,16.96,K*63
$IIVPW,-6.97,N,-3.59,M*55
$IIVWR,096.5,L,8.7,N,4.5,M,16.1,K*65
$IIVWT,139.5,L,13.3,N,6.9,M,24.6,K*51
$IIBWC,202822,,,,,,T,,M,,N,*09
$IIDBT,115.8,f,35.30,M,19.30,F*12
$IIGLL,4832.415,N,12249.776,W,202822,A,D*48
$IIRMC,202822,A,4832.415,N,12249.776,W,9.1,315.5,220603,19,E,D*3D
$IIMWV,263.5,R,8.7,N,A*30
$IIMWV,219.5,T,13.7,N,A*01
$IIVHW,,T,,M,9.60,N,17.78,K*63
$IIVPW,-7.41,N,-3.82,M*59
$IIVWR,091.0,L,8.1,N,4.2,M,15.0,K*64
$IIVWT,140.5,L,12.6,N,6.5,M,23.3,K*55
$IIBWC,202824,,,,,,T,,M,,N,*0F
$IIDBT,115.8,f,35.30,M,19.30,F*12
$IIGLL,4832.419,N,12249.782,W,202824,A,D*49
$IIRMC,202824,A,4832.419,N,12249.782,W,9.1,315.5,220603,19,E,D*3C
$IIMWV,275.0,R,8.0,N,A*35
$IIMWV,222.5,T,11.7,N,A*0B
$IIVHW,,T,,M,9.38,N,17.37,K*65
$IIVPW,-6.86,N,-3.54,M*58
$IIVWR,089.5,L,8.6,N,4.4,M,15.9,K*60
$IIVWT,137.0,L,12.7,N,6.5,M,23.5,K*57
$IIGGA,202825,4832.419,N,12249.782,W,2,08,1,-14,M,,,1,*38
$IIVLW,1298.4,N,10.61,N*7D
$IIVTG,316.0,T,297.0,M,9.1,N,16.9,K*67
$IIBWC,202826,,,,,,T,,M,,N,*0D
$IIDBT,116.5,f,35.52,M,19.41,F*1E
$IIGLL,4832.423,N,12249.787,W,202826,A,D*47
$IIRMC,202825,A,4832.423,N,12249.787,W,9.1,316.0,220603,19,E,D*37
$IIMWV,268.0,R,8.4,N,A*3D
$IIMWV,222.5,T,12.5,N,A*0A
$IIVHW,,T,,M,8.94,N,16.56,K*64
$IIVPW,-6.80,N,-3.51,M*5B
$IIVWR,096.5,L,8.4,N,4.3,M,15.6,K*64
$IIVWT,137.5,L,13.5,N,7.0,M,25.0,K*56
$IIBWC,202827,,,,,,T,,M,,N,*0C
$IIDBT,116.0,f,35.37,M,19.33,F*1D
$IIGLL,4832.427,N,12249.792,W,202827,A,D*46
$IIRMC,202827,A,4832.427,N,12249.792,W,9.1,316.0,220603,19,E,D*35
$IIMWV,268.0,R,8.6,N,A*3F
$IIMWV,222.5,T,12.2,N,A*0D
$IIVHW,,T,,M,8.71,N,16.13,K*6E
$IIVPW,-6.42,N,-3.31,M*53
$IIVWR,092.0,L,8.3,N,4.3,M,15.4,K*60
$IIVWT,137.5,L,12.2,N,6.3,M,22.6,K*53
$IIGSA,,3,14,23,31,15,18,11,03,09,,,,,,1,*7A
$IIGSV,2,1,24,14,77,158,45,23,56,069,44,31,31,252,42,15,30,138,41*65
$IIGSV,2,2,24,18,26,081,41,11,26,306,44,03,21,222,40,09,18,044,40*6A
$IIMTW,13.7,C*16
$IIZDA,202829,22,06,2003,,*5B
$IIHVM,19,E*1E
$IIGGA,202829,4832.430,N,12249.798,W,2,08,1,-14,M,,,1,*34
$IIVLW,1298.4,N,10.61,N*7D
$IIVTG,316.5,T,297.5,M,9.2,N,17.0,K*6C
$IIBWC,202830,,,,,,T,,M,,N,*0A
$IIDBT,116.4,f,35.49,M,19.40,F*14
$IIGLL,4832.430,N,12249.798,W,202830,A,D*4C
$IIRMC,202830,A,4832.430,N,12249.798,W,9.2,316.5,220603,19,E,D*39
$IIMWV,267.5,R,7.4,N,A*38
$IIMWV,219.5,T,11.7,N,A*03
$IIVHW,,T,,M,8.72,N,16.15,K*6B
$IIVPW,-6.73,N,-3.47,M*50
$IIVWR,092.5,L,7.4,N,3.8,M,13.7,K*64
$IIVWT,140.5,L,11.7,N,6.0,M,21.7,K*54
$IIBWC,202831,,,,,,T,,M,,N,*0B
$IIDBT,116.6,f,35.55,M,19.43,F*18
$IIGLL,4832.434,N,12249.803,W,202831,A,D*44
$IIRMC,202831,A,4832.434,N,12249.803,W,9.2,316.5,220603,19,E,D*31
$IIMWV,287.0,R,7.5,N,A*32
$IIMWV,227.5,T,9.7,N,A*37
$IIVHW,,T,,M,8.72,N,16.15,K*6B
$IIVPW,-5.89,N,-3.04,M*51
$IIVWR,073.0,L,7.5,N,3.9,M,13.9,K*60
$IIVWT,132.5,L,9.7,N,5.0,M,18.0,K*66
$IIBWC,202833,,,,,,T,,M,,N,*09
$IIDBT,117.1,f,35.70,M,19.51,F*1A
$IIGLL,4832.438,N,12249.808,W,202833,A,D*41
$IIRMC,202833,A,4832.438,N,12249.808,W,9.2,316.5,220603,19,E,D*34
$IIMWV,267.5,R,8.2,N,A*31
$IIMWV,219.5,T,12.9,N,A*0E
$IIVHW,,T,,M,9.60,N,17.78,K*63
$IIVPW,-7.41,N,-3.82,M*59
$IIVWR,092.5,L,8.2,N,4.2,M,15.2,K*63
$IIVWT,140.5,L,12.9,N,6.6,M,23.9,K*53
$IIGGA,202834,4832.438,N,12249.808,W,2,08,1,-14,M,,,1,*36
$IIVLW,1298.4,N,10.61,N*7D
$IIVTG,316.5,T,297.5,M,9.2,N,17.0,K*6C
$IIBWC,202835,,,,,,T,,M,,N,*0F
$IIDBT,117.5,f,35.82,M,19.58,F*1A
$IIGLL,4832.442,N,12249.814,W,202835,A,D*47
$IIRMC,202835,A,4832.442,N,12249.814,W,9.2,316.5,220603,19,E,D*32
$IIMWV,262.0,R,8.8,N,A*3B
$IIMWV,220.0,T,13.5,N,A*0C
$IIVHW,,T,,M,9.16,N,16.96,K*63
$IIVPW,-7.02,N,-3.62,M*50
$IIVWR,098.0,L,8.8,N,4.5,M,16.3,K*63
$IIVWT,140.0,L,13.5,N,7.0,M,25.0,K*53
$IIBWC,202837,,,,,,T,,M,,N,*0D
$IIDBT,116.8,f,35.61,M,19.46,F*14
$IIGLL,4832.446,N,12249.819,W,202837,A,D*4C
$IIRMC,202837,A,4832.446,N,12249.819,W,9.2,317.0,220603,19,E,D*3D
$IIMWV,275.0,R,8.7,N,A*32
$IIMWV,226.5,T,11.9,N,A*01
$IIVHW,,T,,M,9.03,N,16.72,K*6D
$IIVPW,-6.22,N,-3.21,M*54
$IIVWR,085.0,L,8.7,N,4.5,M,16.1,K*62
$IIVWT,133.5,L,11.9,N,6.1,M,22.0,K*5B
$IIGSA,,3,14,23,31,15,11,18,03,09,,,,,,1,*7A
$IIGSV,2,1,24,14,77,156,44,23,56,070,43,31,31,252,42,15,30,138,42*66
$IIGSV,2,2,24,11,26,305,44,18,25,081,41,03,21,222,40,09,18,043,38*62
$IIMTW,13.7,C*16
$IIZDA,202839,22,06,2003,,*5A
$IIHVM,19,E*1E
$IIGGA,202839,4832.449,N,12249.824,W,2,08,1,-14,M,,,1,*33
$IIVLW,1298.4,N,10.61,N*7D
$IIVTG,317.0,T,298.0,M,9.2,N,17.0,K*62
$IIBWC,202840,,,,,,T,,M,,N,*0D
$IIDBT,117.1,f,35.70,M,19.51,F*1A
$IIGLL,4832.449,N,12249.824,W,202840,A,D*4D
$IIRMC,202840,A,4832.449,N,12249.824,W,9.2,317.0,220603,19,E,D*3C
$IIMWV,271.5,R,9.2,N,A*37
$IIMWV,224.5,T,13.1,N,A*09
$IIVHW,,T,,M,9.60,N,17.78,K*63
$IIVPW,-6.85,N,-3.53,M*5C
$IIVWR,088.5,L,9.2,N,4.7,M,17.0,K*6C
$IIVWT,135.5,L,13.1,N,6.8,M,24.3,K*5B
$IIBWC,202841,,,,,,T,,M,,N,*0C
$IIDBT,117.2,f,35.73,M,19.53,F*18
$IIGLL,4832.453,N,12249.830,W,202841,A,D*42
$IIRMC,202841,A,4832.453,N,12249.830,W,9.3,317.0,220603,19,E,D*32
$IIMWV,268.0,R,9.9,N,A*31
$IIMWV,225.5,T,13.8,N,A*01
$IIVHW,,T,,M,9.38,N,17.37,K*65
$IIVPW,-6.57,N,-3.39,M*5F
$IIVWR,092.0,L,9.9,N,5.1,M,18.3,K*62
$IIVWT,133.5,L,12.9,N,6.6,M,23.9,K*57
$IIBWC,202843,,,,,,T,,M,,N,*0E
$IIDBT,118.2,f,36.04,M,19.70,F*15
$IIGLL,4832.457,N,12249.835,W,202843,A,D*41
$IIRMC,202843,A,4832.457,N,12249.835,W,9.3,317.0,220603,19,E,D*31
$IIMWV,263.0,R,8.8,N,A*3A
$IIMWV,219.0,T,14.0,N,A*04
$IIVHW,,T,,M,9.81,N,18.17,K*6A
$IIVPW,-7.62,N,-3.93,M*58
$IIVWR,097.0,L,8.8,N,4.5,M,16.3,K*6C
$IIVWT,141.0,L,14.0,N,7.2,M,25.9,K*5B
$IIGGA,202844,4832.457,N,12249.835,W,2,08,1,-14,M,,,1,*36
$IIVLW,1298.4,N,10.61,N*7D
$IIVTG,317.0,T,298.0,M,9.3,N,17.2,K*61
$IIBWC,202845,,,,,,T,,M,,N,*08
$IIDBT,117.9,f,35.95,M,19.65,F*1E
$IIGLL,4832.461,N,12249.840,W,202845,A,D*40
$IIRMC,202845,A,4832.461,N,12249.840,W,9.2,317.0,220603,19,E,D*31
$IIMWV,273.0,R,8.0,N,A*33
$IIMWV,222.0,T,12.0,N,A*0A
$IIVHW,,T,,M,9.38,N,17.37,K*65
$IIVPW,-6.97,N,-3.59,M*55
$IIVWR,087.0,L,8.0,N,4.1,M,14.8,K*68
$IIVWT,141.5,L,12.9,N,6.6,M,23.9,K*52
$IIBWC,202847,,,,,,T,,M,,N,*0A
$IIDBT,117.9,f,35.95,M,19.65,F*1E
$IIGLL,4832.465,N,12249.846,W,202847,A,D*40
$IIRMC,202847,A,4832.465,N,12249.846,W,9.2,317.0,220603,19,E,D*31
$IIMWV,264.5,R,7.6,N,A*39
$IIMWV,218.0,T,12.2,N,A*01
$IIVHW,,T,,M,8.94,N,16.56,K*64
$IIVPW,-7.04,N,-3.63,M*57
$IIVWR,089.5,L,7.9,N,4.1,M,14.6,K*6B
$IIVWT,138.5,L,11.8,N,6.1,M,21.9,K*5B
$IIGSA,,3,14,23,31,15,11,18,03,09,,,,,,1,*7A
$IIGSV,2,1,24,14,77,156,44,23,56,070,44,31,31,252,43,15,30,138,41*63
$IIGSV,2,2,24,11,26,305,44,18,25,081,40,03,21,222,40,09,18,043,39*62
$IIMTW,13.5,C*14
$IIZDA,202849,22,06,2003,,*5D
$IIHVM,19,E*1E
$IIGGA,202849,4832.468,N,12249.851,W,2,08,1,-14,M,,,1,*35
$IIVLW,1298.5,N,10.71,N*7D
$IIVTG,317.0,T,298.0,M,9.3,N,17.2,K*61
$IIBWC,202850,,,,,,T,,M,,N,*0C
$IIDBT,118.2,f,36.04,M,19.70,F*15
$IIGLL,4832.468,N,12249.851,W,202850,A,D*4D
$IIRMC,202850,A,4832.468,N,12249.851,W,9.3,317.0,220603,19,E,D*3D
$IIMWV,273.5,R,7.0,N,A*39
$IIMWV,217.5,T,11.4,N,A*0E
$IIVHW,,T,,M,9.60,N,17.78,K*63
$IIVPW,-7.51,N,-3.87,M*5D
$IIVWR,086.0,L,7.2,N,3.7,M,13.3,K*69
$IIVWT,141.5,L,11.6,N,6.0,M,21.5,K*56
$IIBWC,202851,,,,,,T,,M,,N,*0D
$IIDBT,118.7,f,36.19,M,19.78,F*14
$IIGLL,4832.472,N,12249.857,W,202851,A,D*41
$IIRMC,202851,A,4832.472,N,12249.857,W,9.3,317.0,220603,19,E,D*31
$IIMWV,277.0,R,7.6,N,A*3E
$IIMWV,221.0,T,11.4,N,A*0E
$IIVHW,,T,,M,9.60,N,17.78,K*63
$IIVPW,-7.25,N,-3.74,M*52
$IIVWR,083.0,L,7.6,N,3.9,M,14.1,K*63
$IIVWT,139.0,L,11.4,N,5.9,M,21.1,K*50
$IIBWC,202853,,,,,,T,,M,,N,*0F
$IIDBT,118.7,f,36.19,M,19.78,F*14
$IIGLL,4832.476,N,12249.862,W,202853,A,D*41
$IIRMC,202853,A,4832.476,N,12249.862,W,9.3,317.0,220603,19,E,D*31
$IIMWV,272.0,R,7.5,N,A*38
$IIMWV,218.5,T,12.6,N,A*00
$IIVHW,,T,,M,9.38,N,17.37,K*65
$IIVPW,-7.34,N,-3.78,M*5E
$IIVWR,093.5,L,7.9,N,4.1,M,14.6,K*60
$IIVWT,141.5,L,12.6,N,6.5,M,23.3,K*54
$IIGGA,202854,4832.476,N,12249.862,W,2,08,1,-14,M,,,1,*36
$IIVLW,1298.5,N,10.71,N*7D
$IIVTG,317.0,T,298.0,M,9.3,N,17.2,K*61
$IIBWC,202855,,,,,,T,,M,,N,*09
$IIDBT,119.0,f,36.28,M,19.83,F*14
$IIGLL,4832.480,N,12249.867,W,202855,A,D*4B
$IIRMC,202855,A,4832.480,N,12249.867,W,9.3,317.0,220603,19,E,D*3B
$IIMWV,278.5,R,7.5,N,A*37
$IIMWV,222.5,T,10.9,N,A*04
$IIVHW,,T,,M,9.16,N,16.96,K*63
$IIVPW,-6.75,N,-3.48,M*59
$IIVWR,080.5,L,7.4,N,3.8,M,13.7,K*67
$IIVWT,137.5,L,10.7,N,5.5,M,19.8,K*57
$IIBWC,202857,,,,,,T,,M,,N,*0B
$IIDBT,119.2,f,36.34,M,19.86,F*1E
$IIGLL,4832.483,N,12249.873,W,202857,A,D*4F
$IIRMC,202857,A,4832.483,N,12249.873,W,9.3,316.5,220603,19,E,D*3B
$IIMWV,269.0,R,8.2,N,A*3A
$IIMWV,223.0,T,12.1,N,A*0A
$IIVHW,,T,,M,8.72,N,16.15,K*6B
$IIVPW,-6.38,N,-3.29,M*57
$IIVWR,091.0,L,8.2,N,4.2,M,15.2,K*65
$IIVWT,137.0,L,12.1,N,6.2,M,22.4,K*56
$IIGSA,,3,14,23,31,15,11,18,03,09,,,,,,1,*7A
$IIGSV,2,1,24,14,77,156,45,23,56,070,44,31,31,252,43,15,30,138,41*62
$IIGSV,2,2,24,11,26,305,44,18,25,081,42,03,21,222,40,09,18,043,40*6E
$IIMTW,13.7,C*16
$IIZDA,202859,22,06,2003,,*5C
$IIHVM,19,E*1E
$IIGGA,202859,4832.487,N,12249.878,W,2,08,1,-14,M,,,1,*3E
$IIVLW,1298.5,N,10.71,N*7D
$IIVTG,316.0,T,297.0,M,9.2,N,17.0,K*6C
$IIBWC,202900,,,,,,T,,M,,N,*08
$IIDBT,120.0,f,36.59,M,20.00,F*19
$IIGLL,4832.487,N,12249.878,W,202900,A,D*43
$IIRMC,202900,A,4832.487,N,12249.878,W,9.2,316.0,220603,19,E,D*33
$IIMWV,281.0,R,7.3,N,A*32
$IIMWV,224.5,T,10.3,N,A*08
$IIVHW,,T,,M,8.74,N,16.19,K*61
$IIVPW,-6.23,N,-3.21,M*55
$IIVWR,079.0,L,7.3,N,3.8,M,13.5,K*61
$IIVWT,135.5,L,10.3,N,5.3,M,19.1,K*5E
$IIBWC,202901,,,,,,T,,M,,N,*09
$IIDBT,120.0,f,36.59,M,20.00,F*19
$IIGLL,4832.491,N,12249.884,W,202901,A,D*46
$IIRMC,202901,A,4832.491,N,12249.884,W,9.3,316.0,220603,19,E,D*37
$IIMWV,275.0,R,8.0,N,A*35
$IIMWV,225.0,T,11.3,N,A*0D
$IIVHW,,T,,M,8.71,N,16.13,K*6E
$IIVPW,-6.16,N,-3.18,M*59
$IIVWR,085.0,L,8.0,N,4.1,M,14.8,K*6A
$IIVWT,135.0,L,11.3,N,5.8,M,20.9,K*53
$IIBWC,202903,,,,,,T,,M,,N,*0B
$IIDBT,120.0,f,36.59,M,20.00,F*19
$IIGLL,4832.494,N,12249.890,W,202903,A,D*44
$IIRMC,202903,A,4832.494,N,12249.890,W,9.3,315.5,220603,19,E,D*33
$IIMWV,284.0,R,8.0,N,A*3B
$IIMWV,227.0,T,10.6,N,A*0B
$IIVHW,,T,,M,9.14,N,16.93,K*64
$IIVPW,-6.23,N,-3.21,M*55
$IIVWR,076.0,L,8.0,N,4.1,M,14.8,K*66
$IIVWT,133.0,L,10.6,N,5.5,M,19.6,K*59
$IIGGA,202904,4832.494,N,12249.890,W,2,08,1,-14,M,,,1,*33
$IIVLW,1298.5,N,10.71,N*7D
$IIVTG,315.5,T,296.5,M,9.3,N,17.2,K*6D
$IIBWC,202905,,,,,,T,,M,,N,*0D
$IIDBT,120.8,f,36.83,M,20.13,F*14
$IIGLL,4832.498,N,12249.895,W,202905,A,D*4B
$IIRMC,202905,A,4832.498,N,12249.895,W,9.3,315.5,220603,19,E,D*3C
$IIMWV,283.0,R,8.7,N,A*3B
$IIMWV,232.5,T,10.6,N,A*0A
$IIVHW,,T,,M,8.49,N,15.72,K*61
$IIVPW,-5.17,N,-2.66,M*53
$IIVWR,077.0,L,8.7,N,4.5,M,16.1,K*6F
$IIVWT,127.5,L,10.6,N,5.5,M,19.6,K*59
$IIBWC,202907,,,,,,T,,M,,N,*0F
$IIDBT,121.2,f,36.95,M,20.20,F*18
$IIGLL,4832.502,N,12249.901,W,202907,A,D*47
$IIRMC,202907,A,4832.502,N,12249.901,W,9.3,315.0,220603,19,E,D*35
$IIMWV,280.0,R,9.6,N,A*38
$IIMWV,232.5,T,11.9,N,A*04
$IIVHW,,T,,M,8.92,N,16.52,K*66
$IIVPW,-5.43,N,-2.80,M*5A
$IIVWR,080.0,L,9.6,N,4.9,M,17.8,K*63
$IIVWT,127.5,L,11.9,N,6.1,M,22.0,K*5E
$IIGSA,,3,14,23,31,15,11,18,03,09,,,,,,1,*7A
$IIGSV,2,1,24,14,77,156,44,23,56,070,42,31,31,252,43,15,30,138,41*65
$IIGSV,2,2,24,11,26,305,44,18,25,081,42,03,21,222,40,09,18,043,40*6E
$IIMTW,13.7,C*16
$IIZDA,202909,22,06,2003,,*58
$IIHVM,19,E*1E
$IIGGA,202909,4832.505,N,12249.906,W,2,08,1,-14,M,,,1,*39
$IIVLW,1298.5,N,10.71,N*7D
$IIVTG,315.5,T,296.5,M,9.3,N,17.2,K*6D
$IIBWC,202910,,,,,,T,,M,,N,*09
$IIDBT,121.9,f,37.16,M,20.31,F*19
$IIGLL,4832.505,N,12249.906,W,202910,A,D*41
$IIRMC,202910,A,4832.505,N,12249.906,W,9.3,315.5,220603,19,E,D*36
$IIMWV,280.5,R,8.8,N,A*32
$IIMWV,230.5,T,11.2,N,A*0D
$IIVHW,,T,,M,8.71,N,16.13,K*6E
$IIVPW,-5.54,N,-2.86,M*5A
$IIVWR,079.5,L,8.8,N,4.5,M,16.3,K*69
$IIVWT,129.0,L,11.7,N,6.0,M,21.7,K*5E
$IIBWC,202911,,,,,,T,,M,,N,*08
$IIDBT,123.3,f,37.59,M,20.55,F*18
$IIGLL,4832.509,N,12249.912,W,202911,A,D*49
$IIRMC,202911,A,4832.509,N,12249.912,W,9.3,315.5,220603,19,E,D*3E
$IIMWV,278.5,R,9.2,N,A*3E
$IIMWV,229.5,T,11.9,N,A*0E
$IIVHW,,T,,M,9.14,N,16.93,K*64
$IIVPW,-6.17,N,-3.18,M*58
$IIVWR,081.0,L,8.7,N,4.5,M,16.1,K*66
$IIVWT,132.5,L,11.6,N,6.0,M,21.5,K*52
$IIBWC,202913,,,,,,T,,M,,N,*0A
$IIDBT,123.1,f,37.53,M,20.51,F*14
$IIGLL,4832.513,N,12249.917,W,202913,A,D*45
$IIRMC,202913,A,4832.513,N,12249.917,W,9.3,315.5,220603,19,E,D*32
$IIMWV,294.5,R,8.7,N,A*38
$IIMWV,235.0,T,9.6,N,A*30
$IIVHW,,T,,M,9.14,N,16.93,K*64
$IIVPW,-5.24,N,-2.70,M*54
$IIVWR,075.0,L,9.5,N,4.9,M,17.6,K*64
$IIVWT,126.0,L,11.3,N,5.8,M,20.9,K*51
$IIGGA,202914,4832.513,N,12249.917,W,2,08,1,-14,M,,,1,*32
$IIVLW,1298.5,N,10.71,N*7D
$IIVTG,315.5,T,296.5,M,9.3,N,17.2,K*6D
$IIBWC,202915,,,,,,T,,M,,N,*0C
$IIDBT,123.3,f,37.59,M,20.55,F*18
$IIGLL,4832.516,N,12249.923,W,202915,A,D*41
$IIRMC,202915,A,4832.516,N,12249.923,W,9.3,315.5,220603,19,E,D*36
$IIMWV,282.5,R,9.5,N,A*3C
$IIMWV,233.5,T,11.5,N,A*09
$IIVHW,,T,,M,8.92,N,16.52,K*66
$IIVPW,-5.55,N,-2.86,M*5B
$IIVWR,081.5,L,9.2,N,4.7,M,17.0,K*65
$IIVWT,129.5,L,11.7,N,6.0,M,21.7,K*5B
$IIBWC,202917,,,,,,T,,M,,N,*0E
$IIDBT,124.4,f,37.93,M,20.73,F*1A
$IIGLL,4832.520,N,12249.928,W,202917,A,D*4D
$IIRMC,202917,A,4832.520,N,12249.928,W,9.3,316.0,220603,19,E,D*3C
$IIMWV,274.5,R,9.0,N,A*30
$IIMWV,228.0,T,12.0,N,A*00
$IIVHW,,T,,M,8.71,N,16.13,K*6E
$IIVPW,-6.16,N,-3.18,M*59
$IIVWR,088.5,L,8.6,N,4.4,M,15.9,K*61
$IIVWT,135.0,L,12.1,N,6.2,M,22.4,K*54
$IIGSA,,3,14,23,31,15,11,18,03,09,,,,,,1,*7A
$IIGSV,2,1,24,14,77,156,45,23,56,070,45,31,31,252,43,15,30,138,41*63
$IIGSV,2,2,24,11,26,305,45,18,25,081,42,03,21,222,41,09,18,043,38*61
$IIMTW,13.5,C*14
$IIZDA,202919,22,06,2003,,*59
$IIHVM,19,E*1E
$IIGGA,202919,4832.524,N,12249.934,W,2,08,1,-14,M,,,1,*3A
$IIVLW,1298.5,N,10.71,N*7D
$IIVTG,316.5,T,297.5,M,9.3,N,17.2,K*6F
$IIBWC,202920,,,,,,T,,M,,N,*0A
$IIDBT,124.2,f,37.87,M,20.70,F*1A
$IIGLL,4832.524,N,12249.934,W,202920,A,D*40
$IIRMC,202920,A,4832.524,N,12249.934,W,9.3,316.5,220603,19,E,D*34
$IIMWV,274.5,R,8.3,N,A*32
$IIMWV,223.0,T,11.5,N,A*0D
$IIVHW,,T,,M,8.92,N,16.52,K*66
$IIVPW,-6.52,N,-3.36,M*55
$IIVWR,086.5,L,7.9,N,4.1,M,14.6,K*64
$IIVWT,137.0,L,11.5,N,5.9,M,21.3,K*5D
$IIBWC,202921,,,,,,T,,M,,N,*0B
$IIDBT,124.6,f,37.99,M,20.76,F*17
$IIGLL,4832.528,N,12249.939,W,202921,A,D*40
$IIRMC,202921,A,4832.528,N,12249.939,W,9.3,316.5,220603,19,E,D*34
$IIMWV,283.0,R,7.7,N,A*34
$IIMWV,226.0,T,10.4,N,A*08
$IIVHW,,T,,M,8.92,N,16.52,K*66
$IIVPW,-6.20,N,-3.20,M*57
$IIVWR,077.0,L,7.7,N,4.0,M,14.3,K*65
$IIVWT,134.0,L,10.4,N,5.4,M,19.3,K*58
$IIBWC,202923,,,,,,T,,M,,N,*09
$IIDBT,125.3,f,38.20,M,20.88,F*1F
$IIGLL,4832.532,N,12249.944,W,202923,A,D*43
$IIRMC,202923,A,4832.532,N,12249.944,W,9.3,317.0,220603,19,E,D*33
$IIMWV,279.0,R,7.7,N,A*31
$IIMWV,224.5,T,10.9,N,A*02
$IIVHW,,T,,M,8.99,N,16.65,K*69
$IIVPW,-6.41,N,-3.30,M*51
$IIVWR,081.0,L,7.7,N,4.0,M,14.3,K*6C
$IIVWT,135.5,L,10.9,N,5.6,M,20.2,K*58
$IIGGA,202924,4832.532,N,12249.944,W,2,08,1,-14,M,,,1,*34
$IIVLW,1298.5,N,10.71,N*7D
$IIVTG,317.5,T,298.5,M,9.3,N,17.2,K*61
$IIBWC,202925,,,,,,T,,M,,N,*0F
$IIDBT,125.9,f,38.38,M,20.98,F*1D
$IIGLL,4832.536,N,12249.949,W,202925,A,D*4C
$IIRMC,202925,A,4832.536,N,12249.949,W,9.3,317.5,220603,19,E,D*39
$IIMWV,280.0,R,7.5,N,A*35
$IIMWV,225.0,T,10.4,N,A*0B
$IIVHW,,T,,M,8.71,N,16.13,K*6E
$IIVPW,-6.16,N,-3.18,M*59
$IIVWR,080.0,L,7.5,N,3.9,M,13.9,K*6C
$IIVWT,135.0,L,10.4,N,5.4,M,19.3,K*59
$IIBWC,202927,,,,,,T,,M,,N,*0D
$IIDBT,126.5,f,38.57,M,21.08,F*13
$IIGLL,4832.540,N,12249.955,W,202927,A,D*42
$IIRMC,202927,A,4832.540,N,12249.955,W,9.3,317.5,220603,19,E,D*37
$IIMWV,269.0,R,7.4,N,A*33
$IIMWV,220.5,T,11.3,N,A*0D
$IIVHW,,T,,M,8.49,N,15.72,K*61
$IIVPW,-6.46,N,-3.33,M*55
$IIVWR,091.0,L,7.4,N,3.8,M,13.7,K*62
$IIVWT,139.5,L,11.3,N,5.8,M,20.9,K*5A
$IIGSA,,3,14,23,31,15,11,18,03,09,,,,,,1,*7A
$IIGSV,2,1,24,14,77,156,45,23,56,070,40,31,31,252,43,15,30,138,41*66
$IIGSV,2,2,24,11,26,305,44,18,25,081,41,03,21,222,40,09,18,043,36*6C
$IIMTW,13.7,C*16
$IIZDA,202929,22,06,2003,,*5A
$IIHVM,19,E*1E
$IIGGA,202929,4832.544,N,12249.960,W,2,08,1,-14,M,,,1,*3E
$IIVLW,1298.6,N,10.81,N*71
$IIVTG,317.5,T,298.5,M,9.4,N,17.4,K*60
$IIBWC,202930,,,,,,T,,M,,N,*0B
$IIDBT,127.5,f,38.87,M,21.25,F*10
$IIGLL,4832.544,N,12249.960,W,202930,A,D*46
$IIRMC,202930,A,4832.544,N,12249.960,W,9.3,317.5,220603,19,E,D*33
$IIMWV,291.5,R,7.2,N,A*37
$IIMWV,226.5,T,9.2,N,A*33
$IIVHW,,T,,M,8.92,N,16.52,K*66
$IIVPW,-6.14,N,-3.16,M*55
$IIVWR,068.5,L,7.2,N,3.7,M,13.3,K*6C
$IIVWT,133.5,L,9.2,N,4.7,M,17.0,K*6B
$IIBWC,202931,,,,,,T,,M,,N,*0A
$IIDBT,127.5,f,38.87,M,21.25,F*10
$IIGLL,4832.548,N,12249.965,W,202931,A,D*4E
$IIRMC,202931,A,4832.548,N,12249.965,W,9.3,317.5,220603,19,E,D*3B
$IIMWV,266.5,R,7.0,N,A*3D
$IIMWV,217.0,T,11.7,N,A*08
$IIVHW,,T,,M,8.92,N,16.52,K*66
$IIVPW,-7.12,N,-3.67,M*54
$IIVWR,093.5,L,7.0,N,3.6,M,13.0,K*68
$IIVWT,143.0,L,11.7,N,6.0,M,21.7,K*52
$IIBWC,202933,,,,,,T,,M,,N,*08
$IIDBT,128.0,f,39.02,M,21.33,F*11
$IIGLL,4832.551,N,12249.971,W,202933,A,D*41
$IIRMC,202933,A,4832.551,N,12249.971,W,9.3,317.5,220603,19,E,D*34
$IIMWV,271.5,R,7.9,N,A*32
$IIMWV,223.0,T,11.6,N,A*0E
$IIVHW,,T,,M,8.71,N,16.13,K*6E
$IIVPW,-6.37,N,-3.28,M*59
$IIVWR,088.5,L,7.9,N,4.1,M,14.6,K*6A
$IIVWT,137.0,L,11.6,N,6.0,M,21.5,K*52
$IIGGA,202934,4832.551,N,12249.971,W,2,08,1,-14,M,,,1,*36
$IIVLW,1298.6,N,10.81,N*71
$IIVTG,317.5,T,298.5,M,9.3,N,17.2,K*61
$IIBWC,202935,,,,,,T,,M,,N,*0E
$IIDBT,128.7,f,39.24,M,21.45,F*13
$IIGLL,4832.555,N,12249.976,W,202935,A,D*44
$IIRMC,202935,A,4832.555,N,12249.976,W,9.3,317.5,220603,19,E,D*31
$IIMWV,276.0,R,7.6,N,A*3F
$IIMWV,223.0,T,11.1,N,A*09
$IIVHW,,T,,M,8.92,N,16.52,K*66
$IIVPW,-6.52,N,-3.36,M*55
$IIVWR,084.0,L,7.6,N,3.9,M,14.1,K*64
$IIVWT,137.0,L,11.1,N,5.7,M,20.6,K*53
$IIBWC,202937,,,,,,T,,M,,N,*0C
$IIDBT,130.2,f,39.70,M,21.70,F*18
$IIGLL,4832.559,N,12249.981,W,202937,A,D*42
$IIRMC,202937,A,4832.559,N,12249.981,W,9.3,317.5,220603,19,E,D*37
$IIMWV,278.5,R,7.6,N,A*34
$IIMWV,223.5,T,11.0,N,A*0D
$IIVHW,,T,,M,8.94,N,16.56,K*64
$IIVPW,-6.43,N,-3.31,M*52
$IIVWR,081.5,L,7.6,N,3.9,M,14.1,K*64
$IIVWT,136.0,L,10.8,N,5.6,M,20.0,K*5D
$IIGSA,,3,14,23,31,15,11,18,03,09,,,,,,1,*7A
$IIGSV,2,1,24,14,77,156,44,23,56,070,43,31,31,252,42,15,30,138,41*65
$IIGSV,2,2,24,11,26,305,44,18,25,081,40,03,21,222,40,09,18,043,36*6D
$IIMTW,13.7,C*16
$IIZDA,202939,22,06,2003,,*5B
$IIHVM,19,E*1E
$IIGGA,202939,4832.563,N,12249.987,W,2,08,1,-14,M,,,1,*33
$IIVLW,1298.6,N,10.81,N*71
$IIVTG,317.0,T,298.0,M,9.3,N,17.2,K*61
$IIBWC,202940,,,,,,T,,M,,N,*0C
$IIDBT,130.5,f,39.79,M,21.75,F*13
$IIGLL,4832.563,N,12249.987,W,202940,A,D*4D
$IIRMC,202940,A,4832.563,N,12249.987,W,9.3,317.0,220603,19,E,D*3D
$IIMWV,275.0,R,7.7,N,A*3D
$IIMWV,223.0,T,11.3,N,A*0B
$IIVHW,,T,,M,8.94,N,16.56,K*64
$IIVPW,-6.10,N,-3.14,M*53
$IIVWR,075.0,L,7.0,N,3.6,M,13.0,K*65
$IIVWT,136.5,L,9.8,N,5.1,M,18.1,K*6D
$IIBWC,202941,,,,,,T,,M,,N,*0D
$IIDBT,130.5,f,39.79,M,21.75,F*13
$IIGLL,4832.566,N,12249.992,W,202941,A,D*4D
$IIRMC,202941,A,4832.566,N,12249.992,W,9.3,317.0,220603,19,E,D*3D
$IIMWV,285.0,R,7.0,N,A*35
$IIMWV,223.5,T,9.8,N,A*3C
$IIVHW,,T,,M,8.94,N,16.56,K*64
$IIVPW,-6.32,N,-3.26,M*52
$IIVWR,076.5,L,7.4,N,3.8,M,13.7,K*6E
$IIVWT,135.0,L,10.2,N,5.3,M,18.9,K*53
$IIBWC,202943,,,,,,T,,M,,N,*0F
$IIDBT,131.9,f,40.21,M,21.98,F*1E
$IIGLL,4832.570,N,12249.998,W,202943,A,D*42
$IIRMC,202943,A,4832.570,N,12249.998,W,9.3,317.0,220603,19,E,D*32
$IIMWV,281.5,R,7.7,N,A*33
$IIMWV,225.0,T,10.7,N,A*08
$IIVHW,,T,,M,8.94,N,16.56,K*64
$IIVPW,-5.69,N,-2.93,M*50
$IIVWR,063.0,L,7.5,N,3.9,M,13.9,K*61
$IIVWT,129.5,L,8.6,N,4.4,M,15.9,K*6D
$IIGGA,202944,4832.570,N,12249.998,W,2,08,1,-14,M,,,1,*35
$IIVLW,1298.6,N,10.81,N*71
$IIVTG,317.0,T,298.0,M,9.3,N,17.2,K*61
$IIBWC,202945,,,,,,T,,M,,N,*09
$IIDBT,132.8,f,40.49,M,22.13,F*12
$IIGLL,4832.574,N,12250.003,W,202945,A,D*43
$IIRMC,202945,A,4832.574,N,12250.003,W,9.3,317.5,220603,19,E,D*36
$IIMWV,280.5,R,8.5,N,A*3F
$IIMWV,226.5,T,11.5,N,A*0D
$IIVHW,,T,,M,9.38,N,17.37,K*65
$IIVPW,-6.36,N,-3.28,M*58
$IIVWR,083.0,L,8.5,N,4.4,M,15.7,K*62
$IIVWT,134.0,L,11.7,N,6.0,M,21.7,K*52
$IIBWC,202947,,,,,,T,,M,,N,*0B
$IIDBT,134.2,f,40.91,M,22.36,F*1C
$IIGLL,4832.578,N,12250.008,W,202947,A,D*46
$IIRMC,202947,A,4832.578,N,12250.008,W,9.3,317.5,220603,19,E,D*33
$IIMWV,279.0,R,8.1,N,A*38
$IIMWV,222.0,T,11.5,N,A*0C
$IIVHW,,T,,M,8.85,N,16.39,K*6D
$IIVPW,-6.63,N,-3.42,M*54
$IIVWR,088.5,L,7.7,N,4.0,M,14.3,K*60
$IIVWT,138.5,L,11.5,N,5.9,M,21.3,K*57
$IIGSA,,3,14,23,31,15,11,18,03,09,,,,,,1,*7A
$IIGSV,2,1,24,14,77,156,45,23,56,070,43,31,31,252,43,15,30,138,41*65
$IIGSV,2,2,24,11,26,305,44,18,25,081,42,03,21,222,40,09,18,043,37*6E
$IIMTW,13.7,C*16
$IIZDA,202949,22,06,2003,,*5C
$IIHVM,19,E*1E
$IIGGA,202949,4832.582,N,12250.013,W,2,08,1,-14,M,,,1,*37
$IIVLW,1298.6,N,10.81,N*71
$IIVTG,318.0,T,299.0,M,9.3,N,17.2,K*6F
$IIBWC,202950,,,,,,T,,M,,N,*0D
$IIDBT,135.4,f,41.28,M,22.56,F*1E
$IIGLL,4832.582,N,12250.013,W,202950,A,D*4F
$IIRMC,202950,A,4832.582,N,12250.013,W,9.3,318.0,220603,19,E,D*30
$IIMWV,267.5,R,7.6,N,A*3A
$IIMWV,219.5,T,12.0,N,A*07
$IIVHW,,T,,M,8.94,N,16.56,K*64
$IIVPW,-6.90,N,-3.56,M*5D
$IIVWR,092.5,L,7.6,N,3.9,M,14.1,K*66
$IIVWT,140.5,L,12.0,N,6.2,M,22.2,K*54
$IIBWC,202951,,,,,,T,,M,,N,*0C
$IIDBT,135.4,f,41.28,M,22.56,F*1E
$IIGLL,4832.586,N,12250.018,W,202951,A,D*41
$IIRMC,202951,A,4832.586,N,12250.018,W,9.3,318.0,220603,19,E,D*3E
$IIMWV,270.5,R,7.4,N,A*3E
$IIMWV,220.0,T,11.5,N,A*0E
$IIVHW,,T,,M,9.38,N,17.37,K*65
$IIVPW,-7.34,N,-3.78,M*5E
$IIVWR,089.5,L,7.4,N,3.8,M,13.7,K*6E
$IIVWT,141.5,L,11.9,N,6.1,M,22.0,K*5E
$IIBWC,202953,,,,,,T,,M,,N,*0E
$IIDBT,136.5,f,41.62,M,22.75,F*13
$IIGLL,4832.590,N,12250.024,W,202953,A,D*4B
$IIRMC,202953,A,4832.590,N,12250.024,W,9.3,318.5,220603,19,E,D*31
$IIMWV,281.5,R,7.6,N,A*32
$IIMWV,223.5,T,10.8,N,A*04
$IIVHW,,T,,M,9.38,N,17.37,K*65
$IIVPW,-6.80,N,-3.51,M*5B
$IIVWR,078.5,L,7.6,N,3.9,M,14.1,K*62
$IIVWT,136.5,L,10.8,N,5.6,M,20.0,K*58
$IIGGA,202954,4832.590,N,12250.024,W,2,08,1,-14,M,,,1,*3C
$IIVLW,1298.6,N,10.81,N*71
$IIVTG,318.5,T,299.5,M,9.3,N,17.2,K*6F
$IIBWC,202955,,,,,,T,,M,,N,*08
$IIDBT,137.6,f,41.95,M,22.93,F*11
$IIGLL,4832.594,N,12250.029,W,202955,A,D*44
$IIRMC,202955,A,4832.594,N,12250.029,W,9.3,318.5,220603,19,E,D*3E
$IIMWV,271.0,R,8.9,N,A*38
$IIMWV,224.0,T,12.8,N,A*04
$IIVHW,,T,,M,9.38,N,17.37,K*65
$IIVPW,-6.75,N,-3.48,M*59
$IIVWR,089.0,L,8.9,N,4.6,M,16.5,K*67
$IIVWT,135.0,L,12.5,N,6.4,M,23.1,K*52
$IIBWC,202957,,,,,,T,,M,,N,*0A
$IIDBT,138.2,f,42.13,M,23.03,F*1F
$IIGLL,4832.598,N,12250.034,W,202957,A,D*46
$IIRMC,202957,A,4832.598,N,12250.034,W,9.3,318.5,220603,19,E,D*3C
$IIMWV,271.5,R,8.5,N,A*31
$IIMWV,223.0,T,12.5,N,A*0E
$IIVHW,,T,,M,9.38,N,17.37,K*65
$IIVPW,-6.64,N,-3.42,M*53
$IIVWR,088.5,L,8.5,N,4.4,M,15.7,K*6C
$IIVWT,136.5,L,12.3,N,6.3,M,22.8,K*5D
$IIGSA,,3,14,23,31,15,11,18,03,09,,,,,,1,*7A
$IIGSV,2,1,24,14,77,154,44,23,55,070,43,31,30,251,42,15,29,138,41*6E
$IIGSV,2,2,24,11,27,305,44,18,25,082,41,03,21,222,40,09,17,043,37*60
$IIMTW,13.7,C*16
$IIZDA,202959,22,06,2003,,*5D
$IIHVM,19,E*1E
$IIGGA,202959,4832.601,N,12250.039,W,2,08,1,-13,M,,,1,*31
$IIVLW,1298.6,N,10.81,N*71
$IIVTG,318.5,T,299.5,M,9.3,N,17.2,K*6F
$IIBWC,203000,,,,,,T,,M,,N,*00
$IIDBT,140.9,f,42.96,M,23.48,F*19
$IIGLL,4832.601,N,12250.039,W,203000,A,D*42
$IIRMC,203000,A,4832.601,N,12250.039,W,9.3,318.5,220603,19,E,D*38
$IIMWV,287.5,R,7.9,N,A*3B
$IIMWV,228.0,T,10.1,N,A*03
$IIVHW,,T,,M,8.94,N,16.56,K*64
$IIVPW,-5.87,N,-3.03,M*58
$IIVWR,072.5,L,7.9,N,4.1,M,14.6,K*6F
$IIVWT,131.0,L,9.9,N,5.1,M,18.3,K*6C
$IIBWC,203001,,,,,,T,,M,,N,*01
$IIDBT,140.8,f,42.93,M,23.46,F*13
$IIGLL,4832.605,N,12250.044,W,203001,A,D*4D
$IIRMC,203001,A,4832.605,N,12250.044,W,9.3,318.5,220603,19,E,D*37
$IIMWV,281.0,R,7.7,N,A*36
$IIMWV,225.0,T,10.6,N,A*09
$IIVHW,,T,,M,9.16,N,16.96,K*63
$IIVPW,-6.53,N,-3.37,M*55
$IIVWR,079.0,L,7.7,N,4.0,M,14.3,K*6B
$IIVWT,133.0,L,8.8,N,4.5,M,16.3,K*65
$IIBWC,203003,,,,,,T,,M,,N,*03
$IIDBT,141.7,f,43.20,M,23.61,F*11
$IIGLL,4832.609,N,12250.049,W,203003,A,D*4E
$IIRMC,203003,A,4832.609,N,12250.049,W,9.3,318.5,220603,19,E,D*34
$IIMWV,293.5,R,7.3,N,A*34
$IIMWV,229.0,T,8.8,N,A*32
$IIVHW,,T,,M,8.72,N,16.15,K*6B
$IIVPW,-5.72,N,-2.95,M*5C
$IIVWR,066.5,L,7.3,N,3.8,M,13.5,K*6A
$IIVWT,133.0,L,9.1,N,4.7,M,16.9,K*65
$IIGGA,203004,4832.609,N,12250.049,W,2,08,1,-13,M,,,1,*3E
$IIVLW,1298.6,N,10.81,N*71
$IIVTG,318.5,T,299.5,M,9.3,N,17.2,K*6F
$IIBWC,203005,,,,,,T,,M,,N,*05
$IIDBT,142.8,f,43.54,M,23.80,F*11
$IIGLL,4832.613,N,12250.055,W,203005,A,D*4E
$IIRMC,203005,A,4832.613,N,12250.055,W,9.3,318.0,220603,19,E,D*31
$IIMWV,291.5,R,7.8,N,A*3D
$IIMWV,228.0,T,9.7,N,A*3D
$IIVHW,,T,,M,9.38,N,17.37,K*65
$IIVPW,-6.28,N,-3.24,M*5B
$IIVWR,068.5,L,7.8,N,4.0,M,14.4,K*66
$IIVWT,133.5,L,10.5,N,5.4,M,19.4,K*5C
$IIBWC,203007,,,,,,T,,M,,N,*07
$IIDBT,144.6,f,44.09,M,24.10,F*18
$IIGLL,4832.617,N,12250.060,W,203007,A,D*4E
$IIRMC,203007,A,4832.617,N,12250.060,W,9.3,318.0,220603,19,E,D*31
$IIMWV,275.5,R,7.8,N,A*37
$IIMWV,222.0,T,11.6,N,A*0F
$IIVHW,,T,,M,9.38,N,17.37,K*65
$IIVPW,-6.97,N,-3.59,M*55
$IIVWR,090.0,L,7.8,N,4.0,M,14.4,K*64
$IIVWT,141.0,L,12.3,N,6.3,M,22.8,K*58
$IIGSA,,3,14,23,31,15,11,18,03,09,,,,,,1,*7A
$IIGSV,2,1,24,14,77,154,45,23,55,070,43,31,30,251,43,15,29,138,41*6E
$IIGSV,2,2,24,11,27,305,43,18,25,082,42,03,21,222,40,09,17,043,40*64
$IIMTW,13.7,C*16
$IIZDA,203009,22,06,2003,,*50
$IIHVM,19,E*1E
$IIGGA,203009,4832.621,N,12250.065,W,2,08,1,-14,M,,,1,*30
$IIVLW,1298.7,N,10.91,N*71
$IIVTG,318.5,T,299.5,M,9.3,N,17.2,K*6F
$IIBWC,203010,,,,,,T,,M,,N,*01
$IIDBT,145.9,f,44.48,M,24.31,F*10
$IIGLL,4832.621,N,12250.065,W,203010,A,D*48
$IIRMC,203010,A,4832.621,N,12250.065,W,9.3,318.5,220603,19,E,D*32
$IIMWV,283.0,R,6.9,N,A*3B
$IIMWV,221.5,T,10.1,N,A*0F
$IIVHW,,T,,M,9.16,N,16.96,K*63
$IIVPW,-7.50,N,-3.87,M*5C
$IIVWR,087.0,L,6.2,N,3.2,M,11.5,K*68
$IIVWT,142.5,L,10.2,N,5.3,M,18.9,K*56
$IIBWC,203011,,,,,,T,,M,,N,*00
$IIDBT,146.4,f,44.63,M,24.40,F*11
$IIGLL,4832.625,N,12250.071,W,203011,A,D*48
$IIRMC,203011,A,4832.625,N,12250.071,W,9.2,318.5,220603,19,E,D*33
$IIMWV,273.0,R,6.2,N,A*3F
$IIMWV,222.0,T,8.8,N,A*39
$IIVHW,,T,,M,8.47,N,15.69,K*65
$IIVPW,-6.13,N,-3.16,M*52
$IIVWR,072.0,L,6.2,N,3.2,M,11.5,K*62
$IIVWT,137.5,L,8.6,N,4.4,M,15.9,K*62
$IIBWC,203013,,,,,,T,,M,,N,*02
$IIDBT,146.7,f,44.73,M,24.45,F*16
$IIGLL,4832.628,N,12250.076,W,203013,A,D*40
$IIRMC,203013,A,4832.628,N,12250.076,W,9.2,318.5,220603,19,E,D*3B
$IIMWV,281.0,R,7.4,N,A*35
$IIMWV,225.5,T,10.7,N,A*0D
$IIVHW,,T,,M,8.29,N,15.35,K*64
$IIVPW,-5.81,N,-2.99,M*5C
$IIVWR,084.0,L,7.7,N,4.0,M,14.3,K*69
$IIVWT,139.0,L,11.6,N,6.0,M,21.5,K*5C
$IIGGA,203014,4832.628,N,12250.076,W,2,08,1,-14,M,,,1,*37
$IIVLW,1298.7,N,10.91,N*71
$IIVTG,318.5,T,299.5,M,9.2,N,17.0,K*6C
$IIBWC,203015,,,,,,T,,M,,N,*04
$IIDBT,148.9,f,45.40,M,24.81,F*1F
$IIGLL,4832.632,N,12250.081,W,203015,A,D*45
$IIRMC,203015,A,4832.632,N,12250.081,W,9.3,318.0,220603,19,E,D*3A
$IIMWV,289.0,R,7.4,N,A*3D
$IIMWV,227.0,T,9.5,N,A*30
$IIVHW,,T,,M,8.94,N,16.56,K*64
$IIVPW,-5.81,N,-2.99,M*5C
$IIVWR,071.0,L,7.9,N,4.1,M,14.6,K*69
$IIVWT,132.5,L,10.1,N,5.2,M,18.7,K*5D
$IIBWC,203017,,,,,,T,,M,,N,*06
$IIDBT,149.5,f,45.58,M,24.91,F*1A
$IIGLL,4832.636,N,12250.087,W,203017,A,D*45
$IIRMC,203017,A,4832.636,N,12250.087,W,9.4,317.5,220603,19,E,D*37
$IIMWV,272.0,R,8.4,N,A*36
$IIMWV,221.5,T,12.7,N,A*0B
$IIVHW,,T,,M,9.81,N,18.17,K*6A
$IIVPW,-7.35,N,-3.79,M*5E
$IIVWR,088.0,L,8.4,N,4.3,M,15.6,K*6E
$IIVWT,139.0,L,12.9,N,6.6,M,23.9,K*58
$IIGSA,,3,14,23,31,15,11,18,03,09,,,,,,1,*7A
$IIGSV,2,1,24,14,77,154,45,23,55,070,43,31,30,251,43,15,29,138,41*6E
$IIGSV,2,2,24,11,27,305,43,18,25,082,40,03,21,222,40,09,17,043,39*68
$IIMTW,13.7,C*16
$IIZDA,203019,22,06,2003,,*51
$IIHVM,19,E*1E
$IIGGA,203019,4832.640,N,12250.092,W,2,08,1,-14,M,,,1,*3E
$IIVLW,1298.7,N,10.91,N*71
$IIVTG,318.5,T,299.5,M,9.3,N,17.2,K*6F
$IIBWC,203020,,,,,,T,,M,,N,*02
$IIDBT,151.0,f,46.04,M,25.16,F*12
$IIGLL,4832.640,N,12250.092,W,203020,A,D*44
$IIRMC,203020,A,4832.640,N,12250.092,W,9.3,318.5,220603,19,E,D*3E
$IIMWV,280.0,R,7.9,N,A*39
$IIMWV,225.5,T,10.9,N,A*03
$IIVHW,,T,,M,8.94,N,16.56,K*64
$IIVPW,-6.27,N,-3.23,M*53
$IIVWR,080.0,L,7.9,N,4.1,M,14.6,K*67
$IIVWT,131.0,L,10.3,N,5.3,M,19.1,K*5F
$IIBWC,203021,,,,,,T,,M,,N,*03
$IIDBT,151.3,f,46.13,M,25.21,F*13
$IIGLL,4832.644,N,12250.097,W,203021,A,D*44
$IIRMC,203021,A,4832.644,N,12250.097,W,9.3,319.0,220603,19,E,D*3A
$IIMWV,268.0,R,8.7,N,A*3E
$IIMWV,226.0,T,12.0,N,A*0E
$IIVHW,,T,,M,8.07,N,14.94,K*62
$IIVPW,-5.15,N,-2.65,M*52
$IIVWR,092.0,L,8.7,N,4.5,M,16.1,K*64
$IIVWT,132.5,L,11.7,N,6.0,M,21.7,K*51
$IIBWC,203023,,,,,,T,,M,,N,*01
$IIDBT,150.8,f,45.98,M,25.13,F*18
$IIGLL,4832.648,N,12250.102,W,203023,A,D*47
$IIRMC,203023,A,4832.648,N,12250.102,W,9.3,319.0,220603,19,E,D*39
$IIMWV,270.0,R,9.1,N,A*30
$IIMWV,227.0,T,12.4,N,A*0B
$IIVHW,,T,,M,8.50,N,15.74,K*6F
$IIVPW,-5.80,N,-2.99,M*5D
$IIVWR,090.0,L,9.1,N,4.7,M,16.9,K*6B
$IIVWT,136.0,L,13.0,N,6.7,M,24.1,K*51
$IIGGA,203024,4832.648,N,12250.102,W,2,08,1,-14,M,,,1,*30
$IIVLW,1298.7,N,10.91,N*71
$IIVTG,318.5,T,299.5,M,9.3,N,17.2,K*6F
$IIBWC,203025,,,,,,T,,M,,N,*07
$IIDBT,151.7,f,46.25,M,25.28,F*1B
$IIGLL,4832.652,N,12250.107,W,203025,A,D*4F
$IIRMC,203025,A,4832.652,N,12250.107,W,9.3,318.5,220603,19,E,D*35
$IIMWV,286.5,R,7.3,N,A*30
$IIMWV,224.0,T,10.1,N,A*0F
$IIVHW,,T,,M,9.36,N,17.33,K*6F
$IIVPW,-6.73,N,-3.47,M*50
$IIVWR,073.5,L,7.3,N,3.8,M,13.5,K*6E
$IIVWT,136.5,L,10.1,N,5.2,M,18.7,K*59
$IIBWC,203027,,,,,,T,,M,,N,*05
$IIDBT,152.8,f,46.59,M,25.46,F*14
$IIGLL,4832.656,N,12250.113,W,203027,A,D*4C
$IIRMC,203027,A,4832.656,N,12250.113,W,9.4,318.5,220603,19,E,D*31
$IIMWV,269.0,R,8.6,N,A*3E
$IIMWV,220.5,T,13.3,N,A*0F
$IIVHW,,T,,M,10.03,N,18.57,K*5C
$IIVPW,-7.63,N,-3.93,M*59
$IIVWR,091.0,L,8.6,N,4.4,M,15.9,K*6C
$IIVWT,138.5,L,13.0,N,6.7,M,24.1,K*5A
$IIGSA,,3,14,23,31,15,11,18,03,09,,,,,,1,*7A
$IIGSV,2,1,24,14,77,154,45,23,55,070,44,31,30,251,45,15,29,138,41*6F
$IIGSV,2,2,24,11,27,305,43,18,25,082,42,03,21,222,41,09,17,043,41*64
$IIMTW,13.7,C*16
$IIZDA,203029,22,06,2003,,*52
$IIHVM,19,E*1E
$IIGGA,203029,4832.660,N,12250.118,W,2,08,1,-13,M,,,1,*3B
$IIVLW,1298.7,N,10.91,N*71
$IIVTG,318.5,T,299.5,M,9.4,N,17.4,K*6E
$IIBWC,203030,,,,,,T,,M,,N,*03
$IIDBT,153.7,f,46.86,M,25.61,F*1D
$IIGLL,4832.660,N,12250.118,W,203030,A,D*44
$IIRMC,203030,A,4832.660,N,12250.118,W,9.4,318.5,220603,19,E,D*39
$IIMWV,274.0,R,9.2,N,A*37
$IIMWV,227.0,T,12.5,N,A*0A
$IIVHW,,T,,M,9.16,N,16.96,K*63
$IIVPW,-6.25,N,-3.22,M*50
$IIVWR,086.0,L,9.2,N,4.7,M,17.0,K*67
$IIVWT,130.0,L,11.9,N,6.1,M,22.0,K*5D
$IIBWC,203031,,,,,,T,,M,,N,*02
$IIDBT,153.9,f,46.92,M,25.65,F*12
$IIGLL,4832.664,N,12250.123,W,203031,A,D*49
$IIRMC,203031,A,4832.664,N,12250.123,W,9.4,318.5,220603,19,E,D*34
$IIMWV,259.5,R,10.4,N,A*03
$IIMWV,225.0,T,14.4,N,A*0F
$IIVHW,,T,,M,8.29,N,15.35,K*64
$IIVPW,-5.44,N,-2.80,M*5D
$IIVWR,093.5,L,10.4,N,5.4,M,19.3,K*57
$IIVWT,134.0,L,13.1,N,6.8,M,24.3,K*5F
$IIBWC,203033,,,,,,T,,M,,N,*00
$IIDBT,154.4,f,47.07,M,25.73,F*12
$IIGLL,4832.668,N,12250.129,W,203033,A,D*4D
$IIRMC,203033,A,4832.668,N,12250.129,W,9.4,318.5,220603,19,E,D*30
$IIMWV,267.5,R,9.2,N,A*30
$IIMWV,224.0,T,13.2,N,A*0F
$IIVHW,,T,,M,9.16,N,16.96,K*63
$IIVPW,-6.59,N,-3.40,M*5F
$IIVWR,092.5,L,9.2,N,4.7,M,17.0,K*67
$IIVWT,135.0,L,11.4,N,5.9,M,21.1,K*5C
$IIGGA,203034,4832.668,N,12250.129,W,2,08,1,-13,M,,,1,*3D
$IIVLW,1298.7,N,10.91,N*71
$IIVTG,318.0,T,299.0,M,9.4,N,17.4,K*6E
$IIBWC,203035,,,,,,T,,M,,N,*06
$IIDBT,154.7,f,47.16,M,25.78,F*1A
$IIGLL,4832.671,N,12250.134,W,203035,A,D*4F
$IIRMC,203035,A,4832.671,N,12250.134,W,9.4,318.0,220603,19,E,D*37
$IIMWV,275.5,R,9.3,N,A*32
$IIMWV,229.0,T,12.2,N,A*03
$IIVHW,,T,,M,8.94,N,16.56,K*64
$IIVPW,-5.81,N,-2.99,M*5C
$IIVWR,083.0,L,8.8,N,4.5,M,16.3,K*69
$IIVWT,132.0,L,11.7,N,6.0,M,21.7,K*54
$IIBWC,203037,,,,,,T,,M,,N,*04
$IIDBT,155.6,f,47.44,M,25.93,F*18
$IIGLL,4832.675,N,12250.139,W,203037,A,D*44
$IIRMC,203037,A,4832.675,N,12250.139,W,9.4,318.0,220603,19,E,D*3C
$IIMWV,270.5,R,10.2,N,A*0E
$IIMWV,229.0,T,13.5,N,A*05
$IIVHW,,T,,M,8.94,N,16.56,K*64
$IIVPW,-6.15,N,-3.17,M*55
$IIVWR,088.0,L,9.1,N,4.7,M,16.9,K*62
$IIVWT,133.5,L,12.5,N,6.4,M,23.1,K*51
$IIGSA,,3,14,23,31,15,11,18,03,09,,,,,,1,*7A
$IIGSV,2,1,24,14,77,154,44,23,55,070,44,31,30,251,42,15,29,138,40*68
$IIGSV,2,2,24,11,27,305,44,18,25,082,42,03,21,222,41,09,17,043,43*61
$IIMTW,13.7,C*16
$IIZDA,203039,22,06,2003,,*53
$IIHVM,19,E*1E
$IIGGA,203039,4832.679,N,12250.145,W,2,08,1,-13,M,,,1,*3A
$IIVLW,1298.7,N,10.91,N*71
$IIVTG,317.5,T,298.5,M,9.4,N,17.4,K*60
$IIBWC,203040,,,,,,T,,M,,N,*04
$IIDBT,156.4,f,47.68,M,26.06,F*18
$IIGLL,4832.679,N,12250.145,W,203040,A,D*43
$IIRMC,203040,A,4832.679,N,12250.145,W,9.4,317.5,220603,19,E,D*31
$IIMWV,276.5,R,8.5,N,A*36
$IIMWV,224.5,T,11.0,N,A*0A
$IIVHW,,T,,M,8.72,N,16.15,K*6B
$IIVPW,-6.22,N,-3.21,M*54
$IIVWR,083.5,L,7.7,N,4.0,M,14.3,K*6B
$IIVWT,135.5,L,11.0,N,5.7,M,20.4,K*57
$IIBWC,203041,,,,,,T,,M,,N,*05
$IIDBT,156.4,f,47.68,M,26.06,F*18
$IIGLL,4832.683,N,12250.150,W,203041,A,D*43
$IIRMC,203041,A,4832.683,N,12250.150,W,9.4,317.5,220603,19,E,D*31
$IIMWV,277.0,R,7.1,N,A*39
$IIMWV,222.0,T,10.5,N,A*0D
$IIVHW,,T,,M,8.72,N,16.15,K*6B
$IIVPW,-6.48,N,-3.34,M*5C
$IIVWR,083.0,L,7.1,N,3.7,M,13.1,K*6D
$IIVWT,138.0,L,10.5,N,5.4,M,19.4,K*52
$IIBWC,203043,,,,,,T,,M,,N,*07
$IIDBT,156.4,f,47.68,M,26.06,F*18
$IIGLL,4832.687,N,12250.156,W,203043,A,D*43
$IIRMC,203043,A,4832.687,N,12250.156,W,9.4,317.5,220603,19,E,D*31
$IIMWV,281.5,R,6.3,N,A*36
$IIMWV,219.5,T,9.6,N,A*3B
$IIVHW,,T,,M,8.72,N,16.15,K*6B
$IIVPW,-6.73,N,-3.47,M*50
$IIVWR,078.5,L,6.3,N,3.2,M,11.7,K*6E
$IIVWT,140.5,L,9.6,N,4.9,M,17.8,K*6D
$IIGGA,203044,4832.687,N,12250.156,W,2,08,1,-13,M,,,1,*33
$IIVLW,1298.7,N,10.91,N*71
$IIVTG,318.0,T,299.0,M,9.4,N,17.4,K*6E
$IIBWC,203045,,,,,,T,,M,,N,*01
$IIDBT,156.4,f,47.68,M,26.06,F*18
$IIGLL,4832.691,N,12250.161,W,203045,A,D*46
$IIRMC,203045,A,4832.691,N,12250.161,W,9.3,318.0,220603,19,E,D*39
$IIMWV,286.5,R,6.4,N,A*36
$IIMWV,221.5,T,9.2,N,A*34
$IIVHW,,T,,M,8.72,N,16.15,K*6B
$IIVPW,-6.53,N,-3.37,M*55
$IIVWR,073.5,L,6.4,N,3.3,M,11.9,K*6D
$IIVWT,138.5,L,9.2,N,4.7,M,17.0,K*60
$IIBWC,203047,,,,,,T,,M,,N,*03
$IIDBT,157.2,f,47.93,M,26.20,F*1F
$IIGLL,4832.695,N,12250.166,W,203047,A,D*47
$IIRMC,203047,A,4832.695,N,12250.166,W,9.3,318.0,220603,19,E,D*38
$IIMWV,278.0,R,6.6,N,A*30
$IIMWV,220.0,T,10.1,N,A*0B
$IIVHW,,T,,M,8.72,N,16.15,K*6B
$IIVPW,-6.68,N,-3.44,M*59
$IIVWR,082.0,L,6.6,N,3.4,M,12.2,K*6B
$IIVWT,140.0,L,10.1,N,5.2,M,18.7,K*5D
$IIGSA,,3,14,23,31,15,11,18,03,09,,,,,,1,*7A
$IIGSV,2,1,24,14,77,154,44,23,55,070,43,31,30,251,44,15,29,138,41*68
$IIGSV,2,2,24,11,27,305,45,18,25,082,42,03,21,222,40,09,17,043,39*6C
$IIMTW,14.2,C*14
$IIZDA,203049,22,06,2003,,*54
$IIHVM,19,E*1E
$IIGGA,203049,4832.698,N,12250.171,W,2,08,1,-14,M,,,1,*32
$IIVLW,1298.7,N,10.91,N*71
$IIVTG,318.0,T,299.0,M,9.3,N,17.2,K*6F
$IIBWC,203050,,,,,,T,,M,,N,*05
$IIDBT,156.8,f,47.80,M,26.13,F*16
$IIGLL,4832.698,N,12250.171,W,203050,A,D*4A
$IIRMC,203050,A,4832.698,N,12250.171,W,9.3,318.0,220603,19,E,D*35
$IIMWV,287.0,R,7.2,N,A*35
$IIMWV,224.5,T,9.8,N,A*3B
$IIVHW,,T,,M,9.16,N,16.96,K*63
$IIVPW,-6.53,N,-3.37,M*55
$IIVWR,073.0,L,7.2,N,3.7,M,13.3,K*63
$IIVWT,135.5,L,9.8,N,5.1,M,18.1,K*6E
$IIBWC,203051,,,,,,T,,M,,N,*04
$IIDBT,157.8,f,48.11,M,26.30,F*11
$IIGLL,4832.702,N,12250.177,W,203051,A,D*4F
$IIRMC,203051,A,4832.702,N,12250.177,W,9.3,318.0,220603,19,E,D*30
$IIMWV,286.5,R,6.6,N,A*34
$IIMWV,223.5,T,9.1,N,A*35
$IIVHW,,T,,M,8.50,N,15.74,K*6F
$IIVPW,-6.17,N,-3.18,M*58
$IIVWR,073.5,L,6.6,N,3.4,M,12.2,K*60
$IIVWT,140.0,L,9.7,N,5.0,M,18.0,K*66
$IIBWC,203053,,,,,,T,,M,,N,*06
$IIDBT,158.4,f,48.29,M,26.40,F*1E
$IIGLL,4832.702,N,12250.177,W,203053,A,D*4D
$IIRMC,203053,A,4832.706,N,12250.182,W,9.3,318.0,220603,19,E,D*3C
$IIMWV,288.0,R,7.2,N,A*3A
$IIMWV,221.5,T,10.4,N,A*0A
$IIVHW,,T,,M,10.03,N,18.57,K*5C
$IIVPW,-7.51,N,-3.87,M*5D
$IIVWR,072.0,L,7.2,N,3.7,M,13.3,K*62
$IIVWT,138.5,L,10.4,N,5.4,M,19.3,K*51
$IIGGA,203054,4832.706,N,12250.182,W,2,08,1,-14,M,,,1,*34
$IIVLW,1298.8,N,11.01,N*76
$IIVTG,318.0,T,299.0,M,9.3,N,17.2,K*6F
$IIBWC,203055,,,,,,T,,M,,N,*00
$IIDBT,156.3,f,47.65,M,26.05,F*11
$IIGLL,4832.706,N,12250.182,W,203055,A,D*45
$IIRMC,203055,A,4832.710,N,12250.187,W,9.3,318.5,220603,19,E,D*3D
$IIMWV,286.5,R,7.2,N,A*31
$IIMWV,226.0,T,9.5,N,A*31
$IIVHW,,T,,M,8.72,N,16.15,K*6B
$IIVPW,-6.06,N,-3.12,M*52
$IIVWR,073.5,L,7.2,N,3.7,M,13.3,K*66
$IIVWT,134.0,L,9.5,N,4.9,M,17.6,K*66
$IIBWC,203057,,,,,,T,,M,,N,*02
$IIDBT,156.4,f,47.68,M,26.06,F*18
$IIGLL,4832.714,N,12250.192,W,203057,A,D*45
$IIRMC,203057,A,4832.714,N,12250.192,W,9.3,318.5,220603,19,E,D*3F
$IIMWV,277.5,R,8.2,N,A*30
$IIMWV,227.5,T,11.0,N,A*09
